__time,/plotjuggler/logging/ax,/plotjuggler/logging/ay,/plotjuggler/logging/az,/plotjuggler/logging/comp_time,/plotjuggler/logging/controller,/plotjuggler/logging/lookahead_time,/plotjuggler/logging/p,/plotjuggler/logging/pitch,/plotjuggler/logging/platform,/plotjuggler/logging/q,/plotjuggler/logging/r,/plotjuggler/logging/roll,/plotjuggler/logging/timestamp,/plotjuggler/logging/timestamp_sample,/plotjuggler/logging/traj_double,/plotjuggler/logging/traj_spin,/plotjuggler/logging/traj_time,/plotjuggler/logging/trajectory,/plotjuggler/logging/u_p,/plotjuggler/logging/u_q,/plotjuggler/logging/u_r,/plotjuggler/logging/u_throttle,/plotjuggler/logging/vx,/plotjuggler/logging/vx_ref,/plotjuggler/logging/vy,/plotjuggler/logging/vy_ref,/plotjuggler/logging/vz,/plotjuggler/logging/vz_ref,/plotjuggler/logging/x,/plotjuggler/logging/x_ref,/plotjuggler/logging/y,/plotjuggler/logging/y_ref,/plotjuggler/logging/yaw,/plotjuggler/logging/yaw_ref,/plotjuggler/logging/yawd_ref,/plotjuggler/logging/z,/plotjuggler/logging/z_ref
1759720935.609258,-0.025847508,-0.035723593,-0.343842417,0.000474691,1.000000000,1.200000048,-0.001833914,0.005745450,0.000000000,-0.017462775,0.003200702,-0.001619107,1759720935608650.000000000,0.000000000,1.000000000,1.000000000,0.080107212,1.000000000,-0.239294842,-0.121312670,0.357644379,0.762273371,0.049022540,-0.548051655,0.027844395,0.189798698,0.113952942,0.000000000,0.945561647,0.196348101,0.977634549,0.566963315,-0.003054859,0.402157545,0.314159274,-4.074671268,-5.000000000
1759720935.709343,0.051169600,-0.089057863,-0.687023580,0.000449657,1.000000000,1.200000048,-0.072293885,-0.000504436,0.000000000,0.020488171,0.069498643,-0.006476691,1759720935708715.000000000,0.000000000,1.000000000,1.000000000,0.180135012,1.000000000,-0.102238521,0.088021711,0.381722897,0.752445877,0.051051151,-0.563814998,0.020631788,0.136002883,0.055553582,0.000000000,0.950667083,0.140695944,0.979658782,0.583270669,-0.000451987,0.433582187,0.314159274,-4.079531670,-5.000000000
1759720935.810653,-0.014922672,-0.160348892,-0.472936749,0.000319958,1.000000000,1.200000048,-0.074325070,0.005837793,0.000000000,0.104168028,0.156016111,-0.014023036,1759720935809568.000000000,0.000000000,1.000000000,1.000000000,0.280105114,1.000000000,-0.066938624,0.156099603,0.393366635,0.746966124,0.052714042,-0.574306726,0.005310573,0.080968566,-0.002472165,0.000000000,0.956085861,0.083762564,0.978742659,0.594124436,0.010153759,0.464988738,0.314159274,-4.097302437,-5.000000000
1759720935.911533,-0.154401526,-0.224148661,-0.363877028,0.000387669,1.000000000,1.200000048,-0.048576705,0.021080654,0.000000000,0.178680584,0.227512807,-0.020311551,1759720935910448.000000000,0.000000000,1.000000000,1.000000000,0.380195856,1.000000000,-0.031588551,0.217668012,0.396746308,0.743910134,0.045504004,-0.579442501,-0.018542357,0.025111154,-0.050263878,0.000000000,0.964273632,0.025977667,0.973796308,0.599437356,0.029564844,0.496433169,0.314159274,-4.122047901,-5.000000000
1759720936.010931,-0.364158332,-0.266484410,-0.280589789,0.000398874,1.000000000,1.200000048,-0.020217823,0.043811254,0.000000000,0.243438452,0.279465497,-0.023068668,1759720936009794.000000000,0.000000000,1.000000000,1.000000000,0.480220556,1.000000000,-0.002743420,0.243579492,0.397241801,0.741066515,0.019370450,-0.579160273,-0.047927771,-0.030944167,-0.088843234,0.000000000,0.971060872,-0.032011960,0.964778006,0.599145412,0.055145558,0.527856827,0.314159274,-4.150855064,-5.000000000
1759720936.108862,-0.599059641,-0.286084384,-0.195886925,0.000295877,1.000000000,1.200000048,0.002131906,0.068502776,0.000000000,0.242349148,0.314696521,-0.022478072,1759720936108233.000000000,0.000000000,1.000000000,1.000000000,0.580117941,1.000000000,0.016117986,0.194652885,0.399309456,0.737995327,-0.025600469,-0.573478580,-0.078937389,-0.086639851,-0.115259901,0.000000000,0.977711439,-0.089629546,0.951237798,0.593267679,0.082970329,0.559240520,0.314159274,-4.174942017,-5.000000000
1759720936.209322,-0.812070429,-0.286473513,-0.118023708,0.000344276,1.000000000,1.200000048,0.023266785,0.091507003,0.000000000,0.184644237,0.342405796,-0.018418835,1759720936208684.000000000,0.000000000,1.000000000,1.000000000,0.680237293,1.000000000,0.026842700,0.132272512,0.400163412,0.735153854,-0.096854068,-0.562423110,-0.114212632,-0.141648933,-0.134598896,0.000000000,0.980071902,-0.146536842,0.932111800,0.581830680,0.117449433,0.590693951,0.314159274,-4.201334476,-5.000000000
1759720936.308960,-0.941188931,-0.273496836,-0.048001293,0.000365734,1.000000000,1.200000048,0.033035140,0.106286503,0.000000000,0.117524467,0.361106515,-0.012358927,1759720936308359.000000000,0.000000000,1.000000000,1.000000000,0.780108690,1.000000000,0.029753137,0.074743822,0.399302632,0.732661784,-0.178572610,-0.546150684,-0.146141931,-0.195201442,-0.144884259,0.000000000,0.975218773,-0.201937273,0.911202013,0.564996779,0.153005347,0.622069478,0.314159274,-4.226132870,-5.000000000
1759720936.409397,-1.012625337,-0.251923352,0.011943280,0.000510931,1.000000000,1.200000048,0.035951491,0.114784449,0.000000000,0.058392912,0.374410301,-0.005187531,1759720936408638.000000000,0.000000000,1.000000000,1.000000000,0.880116940,1.000000000,0.028256925,0.027495896,0.396547794,0.730642378,-0.269261837,-0.524759412,-0.176923722,-0.247005492,-0.148722157,0.000000000,0.965959668,-0.255528927,0.886037529,0.542867362,0.190830246,0.653487980,0.314159274,-4.250083923,-5.000000000
1759720936.511369,-1.033956051,-0.220966026,0.057858411,0.000496387,1.000000000,1.200000048,0.031342987,0.117957175,0.000000000,0.006624419,0.383752525,0.002779450,1759720936510242.000000000,0.000000000,1.000000000,1.000000000,0.980226040,1.000000000,0.023924207,-0.013852203,0.390172333,0.728837252,-0.372123510,-0.498438895,-0.209158674,-0.296551526,-0.147432581,0.000000000,0.946810603,-0.306784689,0.853781044,0.515638590,0.233788058,0.684938192,0.314159274,-4.276504993,-5.000000000
1759720936.609497,-1.008870482,-0.190683067,0.089397646,0.000488997,1.000000000,1.200000048,0.025777899,0.116181873,0.000000000,-0.035381485,0.388216645,0.009712346,1759720936608864.000000000,0.000000000,1.000000000,1.000000000,1.080153704,1.000000000,0.017943088,-0.044702694,0.383611500,0.727388799,-0.465816796,-0.467514664,-0.238245606,-0.343240738,-0.142547399,0.000000000,0.921847880,-0.355084985,0.819026470,0.483647257,0.275713533,0.716331422,0.314159274,-4.301569462,-5.000000000
1759720936.710020,-0.953613222,-0.153912142,0.117217183,0.000468969,1.000000000,1.200000048,0.017285721,0.110205255,0.000000000,-0.067383081,0.389560729,0.016292749,1759720936709395.000000000,0.000000000,1.000000000,1.000000000,1.180196285,1.000000000,0.011138209,-0.068925738,0.374354452,0.726188362,-0.563957274,-0.432188690,-0.267817229,-0.386777818,-0.134052932,0.000000000,0.880526900,-0.400124401,0.777704298,0.447102278,0.323653162,0.747760713,0.314159274,-4.326862812,-5.000000000
1759720936.809508,-0.868341565,-0.124142088,0.133128822,0.000474691,1.000000000,1.200000048,0.008587363,0.101874761,0.000000000,-0.092384800,0.387715846,0.021212382,1759720936808827.000000000,0.000000000,1.000000000,1.000000000,1.280201674,1.000000000,0.001557673,-0.092032015,0.361773163,0.725214601,-0.650075674,-0.392839432,-0.292647988,-0.426686466,-0.124180622,0.000000000,0.826114535,-0.441410184,0.736685753,0.406395167,0.368715525,0.779178321,0.314159274,-4.349248886,-5.000000000
1759720936.911740,-0.760460258,-0.082428925,0.144015059,0.000524998,1.000000000,1.200000048,-0.004888823,0.090252161,0.000000000,-0.116756931,0.382414162,0.025065530,1759720936910561.000000000,0.000000000,1.000000000,1.000000000,1.380252361,1.000000000,-0.011412229,-0.112057172,0.350103825,0.724082530,-0.736441970,-0.349801660,-0.315192342,-0.462626159,-0.113059945,0.000000000,0.750616789,-0.478590041,0.688318729,0.361872286,0.414991498,0.810610175,0.314159274,-4.378235340,-5.000000000
1759720937.009130,-0.644376099,-0.047132224,0.159135073,0.000458002,1.000000000,1.200000048,-0.019052943,0.077408105,0.000000000,-0.134555027,0.375529498,0.026534474,1759720937008526.000000000,0.000000000,1.000000000,1.000000000,1.480108261,1.000000000,-0.023795433,-0.127529278,0.336995751,0.723048031,-0.805392087,-0.303587615,-0.336928576,-0.494184881,-0.101640731,0.000000000,0.672098875,-0.511237800,0.639521599,0.314063549,0.459475189,0.841980815,0.314159274,-4.407351494,-5.000000000
1759720937.111466,-0.508908927,-0.006868300,0.172791064,0.000513554,1.000000000,1.200000048,-0.032856420,0.063091956,0.000000000,-0.147252634,0.366877347,0.026374331,1759720937110296.000000000,0.000000000,1.000000000,1.000000000,1.580183506,1.000000000,-0.038435187,-0.134203643,0.326644301,0.722402096,-0.863443911,-0.254436731,-0.350246936,-0.521196783,-0.088638209,0.000000000,0.584892869,-0.539181828,0.594323099,0.263216615,0.501059890,0.873420417,0.314159274,-4.431709290,-5.000000000
1759720937.209161,-0.369834572,0.028300548,0.177831382,0.000471592,1.000000000,1.200000048,-0.051030297,0.047914997,0.000000000,-0.153143227,0.357603878,0.024251720,1759720937208546.000000000,0.000000000,1.000000000,1.000000000,1.680106878,1.000000000,-0.056378141,-0.134474680,0.316913933,0.722073138,-0.909601390,-0.202986434,-0.355224431,-0.543305337,-0.074722007,0.000000000,0.489709944,-0.562053204,0.553074181,0.209990904,0.538725317,0.904812276,0.314159274,-4.453438282,-5.000000000
1759720937.309349,-0.208748281,0.059412088,0.182184383,0.000324965,1.000000000,1.200000048,-0.070467301,0.031419478,0.000000000,-0.150648415,0.347681373,0.019744633,1759720937308723.000000000,0.000000000,1.000000000,1.000000000,1.780164242,1.000000000,-0.076379433,-0.128031805,0.312454969,0.721891046,-0.945244849,-0.149571210,-0.350999713,-0.560368299,-0.059578929,0.000000000,0.379965007,-0.579705000,0.512642741,0.154732496,0.572203279,0.936246216,0.314159274,-4.475580692,-5.000000000
1759720937.409158,-0.056491040,0.076100647,0.179431394,0.000350714,1.000000000,1.200000048,-0.089289501,0.016951891,0.000000000,-0.140852943,0.339577317,0.013102014,1759720937408517.000000000,0.000000000,1.000000000,1.000000000,1.880128384,1.000000000,-0.092205629,-0.116996258,0.312919468,0.721878350,-0.962893665,-0.094809458,-0.343371063,-0.572184682,-0.045664519,0.000000000,0.276101410,-0.591929138,0.476553708,0.098081060,0.600268722,0.967650890,0.314159274,-4.494723797,-5.000000000
1759720937.509668,0.106701314,0.073377274,0.177585512,0.000480175,1.000000000,1.200000048,-0.106390439,0.002743421,0.000000000,-0.126595482,0.333182901,0.003440459,1759720937508996.000000000,0.000000000,1.000000000,1.000000000,1.980321407,1.000000000,-0.102296017,-0.100975595,0.315485179,0.722048700,-0.964235008,-0.039035093,-0.330824703,-0.578671217,-0.030496728,0.000000000,0.168624386,-0.598639548,0.443329662,0.040382084,0.628224313,0.999127448,0.314159274,-4.512897968,-5.000000000
1759720937.609002,0.267640442,0.057678323,0.172842279,0.000294924,1.000000000,1.200000048,-0.114354283,-0.009351445,0.000000000,-0.104982942,0.329567820,-0.008101626,1759720937608395.000000000,0.000000000,1.000000000,1.000000000,2.080100060,1.000000000,-0.104722939,-0.081722394,0.319737107,0.722430468,-0.945835590,0.016872924,-0.319197148,-0.579740822,-0.015258447,0.000000000,0.068246596,-0.599746048,0.413104028,-0.017455161,0.656122983,1.030473828,0.314159274,-4.526126385,-5.000000000
1759720937.709129,0.399708241,0.029708257,0.171517938,0.000496149,1.000000000,1.200000048,-0.116279580,-0.018008426,0.000000000,-0.083992027,0.328000426,-0.019690240,1759720937708484.000000000,0.000000000,1.000000000,1.000000000,2.180091143,1.000000000,-0.099849910,-0.062397547,0.323547333,0.722864866,-0.913316727,0.072742261,-0.311941534,-0.575406551,-0.001729397,0.000000000,-0.019775700,-0.595262170,0.386200726,-0.075252384,0.683912456,1.061886907,0.314159274,-4.538340569,-5.000000000
1759720937.809028,0.522999942,-0.012975418,0.170791507,0.000451565,1.000000000,1.200000048,-0.106427513,-0.024597911,0.000000000,-0.060970306,0.328076869,-0.032237068,1759720937808429.000000000,0.000000000,1.000000000,1.000000000,2.280105114,1.000000000,-0.090159066,-0.045922715,0.325502992,0.722938359,-0.864092588,0.127945051,-0.308134317,-0.565697968,0.011419835,0.000000000,-0.110478081,-0.585218608,0.357691258,-0.132360071,0.715893388,1.093307257,0.314159274,-4.556641579,-5.000000000
1759720937.909470,0.612548351,-0.049160253,0.177915201,0.000500441,1.000000000,1.200000048,-0.094317988,-0.028460972,0.000000000,-0.044414409,0.328339010,-0.042726617,1759720937908846.000000000,0.000000000,1.000000000,1.000000000,2.380198240,1.000000000,-0.079054549,-0.030482534,0.328582853,0.722617924,-0.807551503,0.181995064,-0.306466818,-0.550692260,0.022675140,0.000000000,-0.185986459,-0.569695055,0.333696276,-0.188275188,0.743947446,1.124752402,0.314159274,-4.578017712,-5.000000000
1759720938.010242,0.691871345,-0.090744071,0.189106897,0.000466108,1.000000000,1.200000048,-0.082189448,-0.030514434,0.000000000,-0.024249870,0.329461485,-0.053083289,1759720938009478.000000000,0.000000000,1.000000000,1.000000000,2.480109692,1.000000000,-0.064902596,-0.016797351,0.331034213,0.722531676,-0.735411882,0.234249502,-0.309989214,-0.530576408,0.036607917,0.000000000,-0.256091297,-0.548885047,0.309287012,-0.242332771,0.775508642,1.156140566,0.314159274,-4.595868111,-5.000000000
1759720938.109450,0.745787740,-0.127374545,0.185185105,0.000522375,1.000000000,1.200000048,-0.064149685,-0.030391190,0.000000000,-0.011092767,0.330924213,-0.061060302,1759720938108817.000000000,0.000000000,1.000000000,1.000000000,2.580168486,1.000000000,-0.050111756,-0.006668672,0.332440943,0.722450972,-0.663533270,0.284392685,-0.316658020,-0.505474985,0.048912972,0.000000000,-0.316854298,-0.522917449,0.287193924,-0.294206262,0.805119932,1.187574983,0.314159274,-4.613907337,-5.000000000
1759720938.209376,0.776516438,-0.156311631,0.193515778,0.000483990,1.000000000,1.200000048,-0.049194816,-0.028760295,0.000000000,-0.000628857,0.332610160,-0.067954585,1759720938208699.000000000,0.000000000,1.000000000,1.000000000,2.680206537,1.000000000,-0.036605213,-0.001887737,0.333233804,0.722273767,-0.582184911,0.331867903,-0.329362005,-0.475655168,0.062859081,0.000000000,-0.377279848,-0.492068678,0.258313060,-0.343319714,0.837612510,1.219002843,0.314159274,-4.633004665,-5.000000000
1759720938.309026,0.796132743,-0.179509714,0.209178761,0.000468731,1.000000000,1.200000048,-0.034713078,-0.026411109,0.000000000,0.001723135,0.333506167,-0.072927944,1759720938308441.000000000,0.000000000,1.000000000,1.000000000,2.780114651,1.000000000,-0.021969078,-0.003037621,0.332767248,0.722328007,-0.504939973,0.376186758,-0.346805692,-0.441438198,0.077662826,0.000000000,-0.426163912,-0.456670970,0.224389896,-0.389167875,0.869218886,1.250389934,0.314159274,-4.646742344,-5.000000000
1759720938.409053,0.805792749,-0.194355130,0.203008756,0.000360012,1.000000000,1.200000048,-0.019526409,-0.024052216,0.000000000,0.001150816,0.334062606,-0.076013945,1759720938408443.000000000,0.000000000,1.000000000,1.000000000,2.880102634,1.000000000,-0.007383664,-0.007096158,0.330836475,0.722341061,-0.431765407,0.417030811,-0.364663690,-0.403074980,0.091033548,0.000000000,-0.464726448,-0.416983932,0.188422069,-0.431421369,0.899312139,1.281802058,0.314159274,-4.661186695,-5.000000000
1759720938.511271,0.806137383,-0.194301814,0.209187150,0.000359535,1.000000000,1.200000048,-0.001200013,-0.021434689,0.000000000,-0.002286330,0.333639979,-0.077900231,1759720938510128.000000000,0.000000000,1.000000000,1.000000000,2.980191946,1.000000000,0.005863927,-0.012204994,0.327802569,0.722664177,-0.345142096,0.454017490,-0.386348993,-0.360904813,0.108184084,0.000000000,-0.502351761,-0.373358607,0.144701317,-0.469684333,0.935510933,1.313246012,0.314159274,-4.671323776,-5.000000000
1759720938.611336,0.789836586,-0.183555856,0.194735810,0.000497103,1.000000000,1.200000048,0.014134749,-0.019449243,0.000000000,-0.007192660,0.332336575,-0.077888541,1759720938610186.000000000,0.000000000,1.000000000,1.000000000,3.080178499,1.000000000,0.016275808,-0.017107058,0.325121433,0.723090112,-0.265236020,0.486726195,-0.405773610,-0.315407306,0.122907609,0.000000000,-0.528642476,-0.326291084,0.102088407,-0.503521740,0.969670177,1.344657779,0.314159274,-4.679123878,-5.000000000
1759720938.709554,0.768763304,-0.159569830,0.187267542,0.000472546,1.000000000,1.200000048,0.026991593,-0.017945841,0.000000000,-0.012799805,0.330865502,-0.076587416,1759720938708910.000000000,0.000000000,1.000000000,1.000000000,3.180191755,1.000000000,0.027133172,-0.022398090,0.320478737,0.723433316,-0.179939359,0.514898598,-0.425456047,-0.266952395,0.137903154,0.000000000,-0.548009098,-0.276164174,0.053794261,-0.532666266,1.006402612,1.376077771,0.314159274,-4.687410831,-5.000000000
1759720938.810884,0.746667325,-0.128197387,0.177917987,0.000508308,1.000000000,1.200000048,0.037997939,-0.017204711,0.000000000,-0.018428834,0.328392595,-0.074199818,1759720938810164.000000000,0.000000000,1.000000000,1.000000000,3.280224085,1.000000000,0.035136912,-0.027937464,0.319134027,0.723669350,-0.103706516,0.538266242,-0.442355454,-0.215994462,0.150645807,0.000000000,-0.558265746,-0.223447815,0.007315699,-0.556840241,1.038634777,1.407503963,0.314159274,-4.694939613,-5.000000000
1759720938.911221,0.718357146,-0.090152539,0.172364518,0.000348568,1.000000000,1.200000048,0.044994444,-0.016930547,0.000000000,-0.022778120,0.326785773,-0.070923619,1759720938910121.000000000,0.000000000,1.000000000,1.000000000,3.380209446,1.000000000,0.042757999,-0.033618156,0.318644404,0.724261582,-0.028141418,0.556597590,-0.457093388,-0.163043812,0.164583936,0.000000000,-0.557714522,-0.168669999,-0.041475236,-0.575804174,1.070289135,1.438915253,0.314159274,-4.696016788,-5.000000000
1759720939.011340,0.678466618,-0.042760219,0.147831619,0.000378132,1.000000000,1.200000048,0.055328917,-0.017477550,0.000000000,-0.031316478,0.324695945,-0.066413172,1759720939010234.000000000,0.000000000,1.000000000,1.000000000,3.480227470,1.000000000,0.050388377,-0.039637554,0.316788733,0.725136817,0.048309382,0.569737077,-0.469568998,-0.108553328,0.178447098,0.000000000,-0.551331043,-0.112299196,-0.096273623,-0.589397073,1.103637695,1.470336795,0.314159274,-4.692584515,-5.000000000
1759720939.109357,0.634536326,0.011401658,0.124290578,0.000500441,1.000000000,1.200000048,0.064363815,-0.018849753,0.000000000,-0.036977004,0.322905302,-0.061104182,1759720939108748.000000000,0.000000000,1.000000000,1.000000000,3.580120564,1.000000000,0.056194305,-0.044594795,0.316667378,0.726041615,0.121521443,0.577548742,-0.477197558,-0.053118691,0.189802647,0.000000000,-0.533411980,-0.054951664,-0.150653437,-0.597478271,1.135461688,1.501719117,0.314159274,-4.686916828,-5.000000000
1759720939.211890,0.585991502,0.066981532,0.102963291,0.000590086,1.000000000,1.200000048,0.070506312,-0.020750768,0.000000000,-0.040922083,0.321818769,-0.055388045,1759720939210773.000000000,0.000000000,1.000000000,1.000000000,3.680187225,1.000000000,0.061238475,-0.047616415,0.318253398,0.726776063,0.186216384,0.579979062,-0.479318559,0.002908155,0.197702155,0.000000000,-0.506200492,0.003008507,-0.201931432,-0.599992454,1.164527535,1.533156037,0.314159274,-4.681324005,-5.000000000
1759720939.310794,0.529354036,0.133119747,0.082991078,0.000427961,1.000000000,1.200000048,0.072555885,-0.023336357,0.000000000,-0.046978883,0.320839286,-0.049446788,1759720939309734.000000000,0.000000000,1.000000000,1.000000000,3.780099869,1.000000000,0.066306330,-0.051887069,0.320358157,0.727393508,0.246466249,0.576995790,-0.477494061,0.058821909,0.203500807,0.000000000,-0.472662687,0.060851682,-0.257481933,-0.596906245,1.193068385,1.564544559,0.314159274,-4.675609589,-5.000000000
1759720939.409357,0.475061238,0.196729556,0.079054378,0.000554562,1.000000000,1.200000048,0.078229196,-0.026848370,0.000000000,-0.050317727,0.321250707,-0.042569455,1759720939408762.000000000,0.000000000,1.000000000,1.000000000,3.880119562,1.000000000,0.069602959,-0.054639649,0.321855813,0.728147388,0.304764271,0.568622828,-0.469214946,0.114246257,0.208669320,0.000000000,-0.432144284,0.118188567,-0.316234976,-0.588244379,1.223114491,1.595966578,0.314159274,-4.666486740,-5.000000000
1759720939.509379,0.407230765,0.265758514,0.057144087,0.000441790,1.000000000,1.200000048,0.081240356,-0.030773101,0.000000000,-0.051938664,0.322248816,-0.035353877,1759720939508766.000000000,0.000000000,1.000000000,1.000000000,3.980132103,1.000000000,0.069029585,-0.056834158,0.324907988,0.728865206,0.354941130,0.554939926,-0.455108821,0.168599665,0.212393135,0.000000000,-0.389294893,0.174417555,-0.373046666,-0.574089289,1.251733184,1.627386451,0.314159274,-4.657750130,-5.000000000
1759720939.609357,0.350180507,0.331403971,0.038531605,0.000508308,1.000000000,1.200000048,0.080327727,-0.034852840,0.000000000,-0.053873293,0.323349744,-0.028785663,1759720939608697.000000000,0.000000000,1.000000000,1.000000000,4.080167770,1.000000000,0.066070922,-0.057938173,0.328478128,0.729481816,0.394542724,0.536069453,-0.434888899,0.221390367,0.214105293,0.000000000,-0.347788453,0.229029909,-0.424795330,-0.554567695,1.278189659,1.658813596,0.314159274,-4.650279522,-5.000000000
1759720939.709212,0.289352208,0.404594719,0.029093584,0.000467539,1.000000000,1.200000048,0.077286057,-0.039171275,0.000000000,-0.054473478,0.325214416,-0.022434745,1759720939708586.000000000,0.000000000,1.000000000,1.000000000,4.180152416,1.000000000,0.060786251,-0.057758842,0.331521124,0.729971111,0.427644849,0.512203634,-0.407309324,0.272087514,0.214697108,0.000000000,-0.304959565,0.281476468,-0.474802732,-0.529878259,1.305804014,1.690224767,0.314159274,-4.643061638,-5.000000000
1759720939.809895,0.233169287,0.466532320,0.025073996,0.000506163,1.000000000,1.200000048,0.070740990,-0.044085789,0.000000000,-0.055237994,0.326917678,-0.016203627,1759720939809238.000000000,0.000000000,1.000000000,1.000000000,4.280150890,1.000000000,0.053660512,-0.056036118,0.333187908,0.730352342,0.454578996,0.483552694,-0.371242136,0.320251375,0.214293778,0.000000000,-0.258740574,0.331302315,-0.526100338,-0.500238717,1.335742354,1.721640229,0.314159274,-4.636307716,-5.000000000
1759720939.909274,0.174698666,0.534724832,0.012611969,0.000459909,1.000000000,1.200000048,0.057859648,-0.049197264,0.000000000,-0.052906286,0.328856319,-0.011166288,1759720939908661.000000000,0.000000000,1.000000000,1.000000000,4.380104065,1.000000000,0.045504987,-0.050041676,0.333068371,0.730616629,0.474925876,0.450403124,-0.324034512,0.365405500,0.213128403,0.000000000,-0.213961586,0.378014594,-0.569776058,-0.465945244,1.368498802,1.753041387,0.314159274,-4.630959034,-5.000000000
1759720940.011134,0.132815987,0.587500930,0.006355345,0.000298023,1.000000000,1.200000048,0.051202547,-0.053469669,0.000000000,-0.043570634,0.330073178,-0.007592411,1759720940010058.000000000,0.000000000,1.000000000,1.000000000,4.480170727,1.000000000,0.038303230,-0.042155009,0.332626224,0.730951309,0.488706946,0.413007528,-0.273364514,0.407196432,0.211879879,0.000000000,-0.171442524,0.421247631,-0.603504181,-0.427259207,1.399742484,1.784478307,0.314159274,-4.623093128,-5.000000000
1759720940.109232,0.084281906,0.627341270,0.000619329,0.000478983,1.000000000,1.200000048,0.038901564,-0.057393212,0.000000000,-0.036206380,0.330877900,-0.004904873,1759720940108629.000000000,0.000000000,1.000000000,1.000000000,4.580135345,1.000000000,0.032691639,-0.034399062,0.332258195,0.731286764,0.498313248,0.371794641,-0.215372607,0.445143670,0.209787935,0.000000000,-0.124023601,0.460504293,-0.635200202,-0.384624213,1.433307409,1.815883040,0.314159274,-4.614820480,-5.000000000
1759720940.209565,0.054965097,0.659070611,0.003854744,0.000511169,1.000000000,1.200000048,0.034364440,-0.060211018,0.000000000,-0.029258227,0.331739992,-0.003298332,1759720940208842.000000000,0.000000000,1.000000000,1.000000000,4.680134773,1.000000000,0.029185582,-0.028551830,0.332919389,0.731465638,0.502809346,0.327096671,-0.159351259,0.478948772,0.206994995,0.000000000,-0.080697931,0.495475918,-0.659583867,-0.338383853,1.463574290,1.847298741,0.314159274,-4.608477592,-5.000000000
1759720940.309959,0.023118982,0.677066505,0.001980923,0.000499249,1.000000000,1.200000048,0.030839425,-0.062507764,0.000000000,-0.021528304,0.332839191,-0.001961699,1759720940309278.000000000,0.000000000,1.000000000,1.000000000,4.780352592,1.000000000,0.025421545,-0.021187225,0.332642138,0.731541812,0.502598941,0.279237300,-0.094700411,0.508341074,0.203432843,0.000000000,-0.036618378,0.525882483,-0.677527666,-0.288872987,1.496954799,1.878783226,0.314159274,-4.601556778,-5.000000000
1759720940.409947,-0.002721459,0.686319292,0.010378658,0.000696898,1.000000000,1.200000048,0.024999546,-0.064026088,0.000000000,-0.013341820,0.333305061,-0.001352016,1759720940409343.000000000,0.000000000,1.000000000,1.000000000,4.880229473,1.000000000,0.023531524,-0.013758859,0.332665026,0.731293082,0.500614703,0.228935152,-0.033309221,0.532891035,0.199100167,0.000000000,0.004843501,0.551279545,-0.687136233,-0.236835048,1.527693272,1.910160422,0.314159274,-4.603097439,-5.000000000
1759720940.509249,-0.033753268,0.689631402,0.004352070,0.000487804,1.000000000,1.200000048,0.023178041,-0.064756222,0.000000000,-0.005821821,0.333625793,-0.001094975,1759720940508660.000000000,0.000000000,1.000000000,1.000000000,4.980123997,1.000000000,0.024119137,-0.006800781,0.332461059,0.731020808,0.496029079,0.176491335,0.029126137,0.552480757,0.195470795,0.000000000,0.047924448,0.571545243,-0.691303968,-0.182581544,1.558900714,1.941543221,0.314159274,-4.603352070,-5.000000000
1759720940.611107,-0.055909209,0.683793545,0.019623896,0.000317335,1.000000000,1.200000048,0.023116458,-0.064755514,0.000000000,0.002651274,0.333738953,-0.000926503,1759720940610036.000000000,0.000000000,1.000000000,1.000000000,5.080198288,1.000000000,0.026786508,-0.000137626,0.331360102,0.730814099,0.489615053,0.122304611,0.091573060,0.566944182,0.192526653,0.000000000,0.092067853,0.586507797,-0.689783156,-0.126524985,1.590460300,1.972982526,0.314159274,-4.603082657,-5.000000000
1759720940.709247,-0.080238044,0.664012551,0.023518687,0.000468254,1.000000000,1.200000048,0.025178287,-0.063927211,0.000000000,0.009051645,0.333453059,-0.000691187,1759720940708615.000000000,0.000000000,1.000000000,1.000000000,5.180107594,1.000000000,0.030956259,0.005212353,0.329776764,0.730587721,0.479848027,0.067066140,0.158220559,0.576095700,0.189647436,0.000000000,0.139303163,0.595975161,-0.681744695,-0.069380403,1.625248194,2.004369974,0.314159274,-4.602127075,-5.000000000
1759720940.809067,-0.109001413,0.642945111,0.024556180,0.000467777,1.000000000,1.200000048,0.030005932,-0.062678635,0.000000000,0.013118656,0.332811266,0.000024478,1759720940808461.000000000,0.000000000,1.000000000,1.000000000,5.280111313,1.000000000,0.032809064,0.010165647,0.327427208,0.730590165,0.465713650,0.011149578,0.218218818,0.579879165,0.188414767,0.000000000,0.177582219,0.599889100,-0.668635070,-0.011534318,1.658378124,2.035787106,0.314159274,-4.598264694,-5.000000000
1759720940.911185,-0.139221907,0.620233893,0.018159857,0.000484705,1.000000000,1.200000048,0.029634010,-0.061134357,0.000000000,0.016300157,0.331466764,0.000975106,1759720940910131.000000000,0.000000000,1.000000000,1.000000000,5.380215168,1.000000000,0.033827629,0.011858360,0.325888544,0.730260432,0.449661046,-0.044926800,0.273085505,0.578243673,0.184740871,0.000000000,0.214542076,0.598197162,-0.656072080,0.046477094,1.690862298,2.067235470,0.314159274,-4.601902962,-5.000000000
1759720941.009157,-0.165988594,0.585817635,0.034505498,0.000322580,1.000000000,1.200000048,0.031241981,-0.059227284,0.000000000,0.019756103,0.329950482,0.002108721,1759720941008565.000000000,0.000000000,1.000000000,1.000000000,5.480202675,1.000000000,0.039158709,0.013081186,0.324383140,0.729686618,0.435781896,-0.100518860,0.329885513,0.571209311,0.181109160,0.000000000,0.263400495,0.590920150,-0.636164188,0.103987478,1.724209309,2.098647594,0.314159274,-4.610466480,-5.000000000
1759720941.109597,-0.188332185,0.552186966,0.046347264,0.000363111,1.000000000,1.200000048,0.037395731,-0.057184085,0.000000000,0.019465357,0.328346819,0.003507027,1759720941108987.000000000,0.000000000,1.000000000,1.000000000,5.580286503,1.000000000,0.049573362,0.012780694,0.324849993,0.729158759,0.422967732,-0.155224413,0.383214802,0.558828712,0.179032981,0.000000000,0.316508025,0.578112304,-0.609823167,0.160580754,1.755753875,2.130089760,0.314159274,-4.617843628,-5.000000000
1759720941.210367,-0.221365511,0.521429002,0.053596679,0.000517130,1.000000000,1.200000048,0.049244989,-0.055415619,0.000000000,0.017048778,0.327775329,0.005747327,1759720941209711.000000000,0.000000000,1.000000000,1.000000000,5.680204868,1.000000000,0.060341567,0.011801064,0.326714069,0.728994310,0.409744829,-0.208391801,0.428808212,0.541255057,0.179028377,0.000000000,0.365531594,0.559932172,-0.581006050,0.215582803,1.783971190,2.161480188,0.314159274,-4.620099068,-5.000000000
1759720941.310921,-0.261983603,0.488357186,0.047395933,0.000489235,1.000000000,1.200000048,0.061067447,-0.053888500,0.000000000,0.016434826,0.327429593,0.009408104,1759720941310244.000000000,0.000000000,1.000000000,1.000000000,5.780197144,1.000000000,0.069922768,0.010628083,0.328664064,0.729175687,0.393118620,-0.259653717,0.473926514,0.518617451,0.180492148,0.000000000,0.419211984,0.536513507,-0.547412336,0.268613636,1.814000249,2.192893505,0.314159274,-4.618130207,-5.000000000
1759720941.410763,-0.316188812,0.454840869,0.043212432,0.000373125,1.000000000,1.200000048,0.071007743,-0.052502621,0.000000000,0.016456878,0.327912927,0.013835233,1759720941410122.000000000,0.000000000,1.000000000,1.000000000,5.880230427,1.000000000,0.078324877,0.008768581,0.330101550,0.729345381,0.374182761,-0.308511168,0.512878418,0.491126269,0.180644020,0.000000000,0.475382686,0.508073628,-0.513732851,0.319157004,1.843061090,2.224319935,0.314159274,-4.618129253,-5.000000000
1759720941.508977,-0.380396903,0.414107859,0.042948868,0.000461102,1.000000000,1.200000048,0.080890976,-0.051401712,0.000000000,0.014944696,0.328790784,0.019815592,1759720941508355.000000000,0.000000000,1.000000000,1.000000000,5.980103970,1.000000000,0.083443373,0.009540273,0.330234289,0.729626954,0.345534086,-0.354415327,0.552806556,0.459101200,0.181309789,0.000000000,0.529603720,0.474943459,-0.468537271,0.366645187,1.875796676,2.255696297,0.314159274,-4.614583492,-5.000000000
1759720941.609270,-0.448961437,0.376373976,0.039111819,0.000512123,1.000000000,1.200000048,0.085749820,-0.050585225,0.000000000,0.016472621,0.329118818,0.026257887,1759720941608580.000000000,0.000000000,1.000000000,1.000000000,6.080134392,1.000000000,0.083765164,0.014412026,0.329418361,0.729993105,0.310237318,-0.397082984,0.588532686,0.422740161,0.181878060,0.000000000,0.573769569,0.437327713,-0.418357909,0.410785168,1.907065988,2.287121773,0.314159274,-4.610322475,-5.000000000
1759720941.710777,-0.512859225,0.320578158,0.035149042,0.000456810,1.000000000,1.200000048,0.083165705,-0.049614288,0.000000000,0.022555441,0.329177320,0.033237945,1759720941709371.000000000,0.000000000,1.000000000,1.000000000,6.180103302,1.000000000,0.081223138,0.023174262,0.326918691,0.730228662,0.262712568,-0.436017990,0.623984754,0.382455826,0.181566700,0.000000000,0.614744186,0.395653278,-0.357226819,0.451063722,1.942272902,2.318527937,0.314159274,-4.607250214,-5.000000000
1759720941.809251,-0.568052888,0.269788563,0.042623837,0.000489950,1.000000000,1.200000048,0.080434494,-0.048150267,0.000000000,0.029899865,0.329017818,0.038948670,1759720941808652.000000000,0.000000000,1.000000000,1.000000000,6.280125618,1.000000000,0.075683750,0.027412048,0.326445341,0.730057955,0.217035770,-0.470902205,0.646295846,0.338578314,0.180154473,0.000000000,0.642351985,0.350261688,-0.307005465,0.487151682,1.971929312,2.349950790,0.314159274,-4.610096931,-5.000000000
1759720941.908957,-0.615048826,0.210087135,0.042067837,0.000268459,1.000000000,1.200000048,0.073665790,-0.046263713,0.000000000,0.033317558,0.328233540,0.044899311,1759720941908308.000000000,0.000000000,1.000000000,1.000000000,6.380118370,1.000000000,0.065368593,0.031439897,0.324657768,0.729864717,0.159809083,-0.501379192,0.662407696,0.291552842,0.178949058,0.000000000,0.662334979,0.301613480,-0.253626406,0.518680334,2.004399061,2.381364346,0.314159274,-4.612388134,-5.000000000
1759720942.009094,-0.659651160,0.146767750,0.043861564,0.000438929,1.000000000,1.200000048,0.060057268,-0.043969091,0.000000000,0.038678993,0.327178806,0.050358068,1759720942008467.000000000,0.000000000,1.000000000,1.000000000,6.480099678,1.000000000,0.052985977,0.037192922,0.322163016,0.729955137,0.091578044,-0.527173162,0.674474299,0.241811097,0.179386020,0.000000000,0.674014509,0.250155300,-0.192978680,0.545364380,2.039537668,2.412774563,0.314159274,-4.608276367,-5.000000000
1759720942.109954,-0.678234220,0.088793248,0.037511807,0.000513792,1.000000000,1.200000048,0.043828268,-0.041595310,0.000000000,0.042241201,0.325915754,0.054023582,1759720942109372.000000000,0.000000000,1.000000000,1.000000000,6.580203533,1.000000000,0.041786473,0.043905146,0.320628405,0.730301917,0.024564605,-0.548069298,0.680444717,0.189747661,0.180395141,0.000000000,0.676246226,0.196295306,-0.134969532,0.566981614,2.072115898,2.444222927,0.314159274,-4.601414204,-5.000000000
1759720942.209066,-0.684702635,0.021572787,0.039878298,0.000342131,1.000000000,1.200000048,0.032643735,-0.038364347,0.000000000,0.051909536,0.324504316,0.056686722,1759720942208439.000000000,0.000000000,1.000000000,1.000000000,6.680123329,1.000000000,0.031343602,0.050577410,0.317893535,0.730481803,-0.049721904,-0.563813508,0.680127621,0.136009112,0.180563569,0.000000000,0.670009971,0.140702397,-0.072154455,0.583269119,2.107589483,2.475613832,0.314159274,-4.596315384,-5.000000000
1759720942.309319,-0.674515188,-0.036092233,0.040080395,0.000467539,1.000000000,1.200000048,0.022870913,-0.034761559,0.000000000,0.056935243,0.322545469,0.058220327,1759720942308714.000000000,0.000000000,1.000000000,1.000000000,6.780163765,1.000000000,0.022384346,0.055774644,0.315782964,0.730511010,-0.117118873,-0.574311316,0.673655689,0.080936141,0.180261075,0.000000000,0.657907844,0.083729014,-0.014956539,0.594129145,2.139951229,2.507042408,0.314159274,-4.594257355,-5.000000000
1759720942.409164,-0.648675501,-0.098853916,0.033568587,0.000447512,1.000000000,1.200000048,0.011933116,-0.030397255,0.000000000,0.060970031,0.320734829,0.059038639,1759720942408547.000000000,0.000000000,1.000000000,1.000000000,6.880115032,1.000000000,0.011799875,0.058150463,0.313673526,0.730711162,-0.188939214,-0.579440534,0.656060636,0.025156425,0.180846587,0.000000000,0.633881927,0.026024502,0.037436549,0.599435329,2.174718380,2.538443089,0.314159274,-4.588066578,-5.000000000
1759720942.509023,-0.617730558,-0.149637923,0.031430271,0.000302076,1.000000000,1.200000048,-0.000303612,-0.026173078,0.000000000,0.062264025,0.318538278,0.058689363,1759720942508359.000000000,0.000000000,1.000000000,1.000000000,6.980103016,1.000000000,0.002981413,0.060085919,0.312484384,0.730847001,-0.253305644,-0.579163790,0.636285126,-0.030878363,0.180701807,0.000000000,0.604213417,-0.031943887,0.085523561,0.599149048,2.206665993,2.569855213,0.314159274,-4.584871769,-5.000000000
1759720942.609221,-0.566020906,-0.197055534,0.015359371,0.000474930,1.000000000,1.200000048,-0.008737645,-0.021426650,0.000000000,0.064110011,0.316679895,0.057450909,1759720942608607.000000000,0.000000000,1.000000000,1.000000000,7.080122948,1.000000000,-0.002454621,0.063362040,0.310958922,0.730781436,-0.318300873,-0.573478162,0.611015320,-0.086642496,0.178982541,0.000000000,0.567356706,-0.089632280,0.137356028,0.593267262,2.241012812,2.601277351,0.314159274,-4.584146500,-5.000000000
1759720942.708980,-0.516980529,-0.240519479,0.027017666,0.000290394,1.000000000,1.200000048,-0.013604424,-0.016671296,0.000000000,0.067116782,0.315130025,0.055894855,1759720942708339.000000000,0.000000000,1.000000000,1.000000000,7.180117607,1.000000000,-0.006045048,0.063543454,0.309460044,0.730545759,-0.372131109,-0.562439501,0.581695676,-0.141583741,0.177311331,0.000000000,0.530909061,-0.146469384,0.181961089,0.581847668,2.273169041,2.632691622,0.314159274,-4.584873199,-5.000000000
1759720942.809346,-0.451276541,-0.284611911,0.028317792,0.000477076,1.000000000,1.200000048,-0.018462937,-0.011269613,0.000000000,0.065587647,0.313738763,0.053800356,1759720942808698.000000000,0.000000000,1.000000000,1.000000000,7.280126572,1.000000000,-0.011914200,0.059094928,0.307318836,0.730341077,-0.424194902,-0.546147346,0.539963961,-0.195210755,0.175625011,0.000000000,0.486026347,-0.201946914,0.215617567,0.564993322,2.308613300,2.664110184,0.314159274,-4.585565567,-5.000000000
1759720942.909195,-0.391768485,-0.314011514,0.025539657,0.000454187,1.000000000,1.200000048,-0.024304841,-0.006601876,0.000000000,0.057991404,0.312082171,0.051490068,1759720942908512.000000000,0.000000000,1.000000000,1.000000000,7.380126953,1.000000000,-0.016824521,0.053806715,0.305637300,0.730166793,-0.466054171,-0.524756968,0.496103883,-0.247010693,0.174615577,0.000000000,0.439787865,-0.255534321,0.242966652,0.542864799,2.342001200,2.695526361,0.314159274,-4.586999893,-5.000000000
1759720943.009247,-0.323810875,-0.332641155,0.026373191,0.000330210,1.000000000,1.200000048,-0.031340133,-0.002057680,0.000000000,0.055984836,0.309667259,0.048397858,1759720943008514.000000000,0.000000000,1.000000000,1.000000000,7.480139256,1.000000000,-0.019661555,0.049929414,0.302803814,0.730039299,-0.503392696,-0.498463780,0.448775470,-0.296509713,0.173296556,0.000000000,0.386610597,-0.306741416,0.269950956,0.515664339,2.377703667,2.726946115,0.314159274,-4.587177277,-5.000000000
1759720943.109120,-0.264453262,-0.343497276,0.017200595,0.000475645,1.000000000,1.200000048,-0.032115031,0.001810386,0.000000000,0.050408855,0.307868481,0.045323253,1759720943108515.000000000,0.000000000,1.000000000,1.000000000,7.580148697,1.000000000,-0.018362893,0.046835251,0.302251548,0.729963183,-0.530536950,-0.467516392,0.405072868,-0.343238354,0.171750918,0.000000000,0.335711092,-0.355082542,0.292486370,0.483649045,2.409785032,2.758364916,0.314159274,-4.586683273,-5.000000000
1759720943.210673,-0.202910140,-0.353334844,0.027493572,0.000484943,1.000000000,1.200000048,-0.030313702,0.005699193,0.000000000,0.045592703,0.306157947,0.042227931,1759720943209982.000000000,0.000000000,1.000000000,1.000000000,7.680176258,1.000000000,-0.017521555,0.043510545,0.299772412,0.729776621,-0.552817106,-0.432196200,0.355591387,-0.386769444,0.169751346,0.000000000,0.279186130,-0.400115758,0.312806219,0.447110027,2.444689989,2.789789677,0.314159274,-4.587584972,-5.000000000
1759720943.310070,-0.152019694,-0.358987629,0.030784866,0.000461340,1.000000000,1.200000048,-0.026105370,0.009034147,0.000000000,0.041575205,0.304117352,0.039738156,1759720943309457.000000000,0.000000000,1.000000000,1.000000000,7.780416965,1.000000000,-0.017892834,0.040277675,0.297915220,0.729448557,-0.568287313,-0.392750621,0.307286382,-0.426768214,0.167987138,0.000000000,0.224117279,-0.441494763,0.324452966,0.406303316,2.477454424,2.821281195,0.314159274,-4.591801643,-5.000000000
1759720943.409638,-0.097432956,-0.358181834,0.034737397,0.000440121,1.000000000,1.200000048,-0.027834442,0.012148931,0.000000000,0.037831351,0.301865906,0.037329294,1759720943408761.000000000,0.000000000,1.000000000,1.000000000,7.880084991,1.000000000,-0.018628964,0.038928993,0.295512915,0.729322433,-0.579386711,-0.349876374,0.256025672,-0.462569624,0.166979268,0.000000000,0.161534965,-0.478531569,0.334159583,0.361949623,2.512636900,2.852592945,0.314159274,-4.592377663,-5.000000000
1759720943.509053,-0.051174425,-0.356954336,0.027294269,0.000477791,1.000000000,1.200000048,-0.026796900,0.014901071,0.000000000,0.037891112,0.300090224,0.035060786,1759720943508444.000000000,0.000000000,1.000000000,1.000000000,7.980093002,1.000000000,-0.017444497,0.039284334,0.294376552,0.729269683,-0.585327983,-0.303595036,0.210771620,-0.494180351,0.165657714,0.000000000,0.102712914,-0.511233091,0.340666801,0.314071208,2.544323206,2.884011269,0.314159274,-4.592566490,-5.000000000
1759720943.609203,-0.000745442,-0.358786523,0.032916661,0.000309229,1.000000000,1.200000048,-0.023981096,0.017878015,0.000000000,0.037172291,0.297983110,0.032913163,1759720943608539.000000000,0.000000000,1.000000000,1.000000000,8.080137253,1.000000000,-0.016087450,0.040389407,0.293514401,0.729256213,-0.586847603,-0.254460037,0.163338363,-0.521185398,0.164774507,0.000000000,0.038341742,-0.539170027,0.343677282,0.263240725,2.577637911,2.915441036,0.314159274,-4.591834545,-5.000000000
1759720943.709015,0.038948469,-0.354823798,0.029555520,0.000465393,1.000000000,1.200000048,-0.020171506,0.020781340,0.000000000,0.039718583,0.297270358,0.031380516,1759720943708413.000000000,0.000000000,1.000000000,1.000000000,8.180100441,1.000000000,-0.015386577,0.041116573,0.294373065,0.729341388,-0.583617747,-0.202989817,0.119994886,-0.543304026,0.164631248,0.000000000,-0.021272972,-0.562051892,0.341357440,0.209994406,2.608124256,2.946845531,0.314159274,-4.589460373,-5.000000000
1759720943.809193,0.085738264,-0.359595627,0.031417232,0.000495195,1.000000000,1.200000048,-0.020218711,0.024179973,0.000000000,0.042005796,0.296453148,0.029998854,1759720943808588.000000000,0.000000000,1.000000000,1.000000000,8.280156136,1.000000000,-0.016036518,0.043667663,0.294118136,0.729255617,-0.577775896,-0.149575606,0.074423105,-0.560367107,0.163287669,0.000000000,-0.092037551,-0.579703748,0.337262124,0.154737025,2.640875578,2.978278875,0.314159274,-4.591736317,-5.000000000
1759720943.909010,0.130066961,-0.356718183,0.031668689,0.000463009,1.000000000,1.200000048,-0.019935053,0.027564958,0.000000000,0.044468112,0.295748532,0.028829612,1759720943908379.000000000,0.000000000,1.000000000,1.000000000,8.380089760,1.000000000,-0.014723592,0.045367192,0.294320256,0.729202569,-0.565866053,-0.094830818,0.034920279,-0.572181165,0.163004845,0.000000000,-0.150433272,-0.591925502,0.333095193,0.098103158,2.670639515,3.009674072,0.314159274,-4.593700886,-5.000000000
1759720944.011101,0.169963449,-0.361303538,0.033558343,0.000453711,1.000000000,1.200000048,-0.019031277,0.030880790,0.000000000,0.045281027,0.295205176,0.027869318,1759720944009839.000000000,0.000000000,1.000000000,1.000000000,8.480091095,1.000000000,-0.012081837,0.044641800,0.296687782,0.729203522,-0.549634755,-0.039163787,-0.003144842,-0.578662574,0.162884906,0.000000000,-0.200329870,-0.598630548,0.323307455,0.040515218,2.698095083,3.041090488,0.314159274,-4.595031261,-5.000000000
1759720944.109338,0.215297058,-0.361238927,0.039157454,0.000500679,1.000000000,1.200000048,-0.018258430,0.034707598,0.000000000,0.040284105,0.295552880,0.027029647,1759720944108719.000000000,0.000000000,1.000000000,1.000000000,8.580107689,1.000000000,-0.014735828,0.039309435,0.295578897,0.729100227,-0.524049878,0.016877066,-0.049665634,-0.579740703,0.162779331,0.000000000,-0.254422396,-0.599745929,0.305058211,-0.017459445,2.731445789,3.072511435,0.314159274,-4.597728729,-5.000000000
1759720944.209071,0.254303694,-0.354045957,0.046215948,0.000466108,1.000000000,1.200000048,-0.018308822,0.038061894,0.000000000,0.035646014,0.295172781,0.026117550,1759720944208462.000000000,0.000000000,1.000000000,1.000000000,8.680104256,1.000000000,-0.013538420,0.033630062,0.295309395,0.728639841,-0.492182344,0.072749555,-0.092232481,-0.575405657,0.161658600,0.000000000,-0.301039338,-0.595261216,0.287968636,-0.075259931,2.764935970,3.103926182,0.314159274,-4.606219292,-5.000000000
1759720944.309283,0.292977452,-0.347105473,0.058787871,0.000333786,1.000000000,1.200000048,-0.015410597,0.040605947,0.000000000,0.028050052,0.294693410,0.025508925,1759720944308629.000000000,0.000000000,1.000000000,1.000000000,8.780149460,1.000000000,-0.011577020,0.024449723,0.294156224,0.727972984,-0.453422934,0.127969310,-0.130313903,-0.565692484,0.160762832,0.000000000,-0.331841409,-0.585212946,0.269573390,-0.132385150,2.796636820,3.135356426,0.314159274,-4.618799686,-5.000000000
1759720944.409382,0.326103657,-0.334451973,0.067268491,0.000512362,1.000000000,1.200000048,-0.012956595,0.042517714,0.000000000,0.017681921,0.294459909,0.025099078,1759720944408771.000000000,0.000000000,1.000000000,1.000000000,8.880161285,1.000000000,-0.010379194,0.014608980,0.293600172,0.727646589,-0.408356994,0.181975514,-0.170215070,-0.550698698,0.162278771,0.000000000,-0.358441442,-0.569701731,0.245305151,-0.188254967,2.830718994,3.166776180,0.314159274,-4.624881744,-5.000000000
1759720944.509092,0.337159097,-0.320701212,0.072204500,0.000465393,1.000000000,1.200000048,-0.012025319,0.043182056,0.000000000,0.007576639,0.294126987,0.024983851,1759720944508465.000000000,0.000000000,1.000000000,1.000000000,8.980123520,1.000000000,-0.011421748,0.005610327,0.292815119,0.727643013,-0.365777463,0.234256595,-0.205842882,-0.530573249,0.165456742,0.000000000,-0.378907353,-0.548881829,0.219852522,-0.242340118,2.861611605,3.198180199,0.314159274,-4.626818180,-5.000000000
1759720944.610433,0.344892412,-0.306990981,0.071440816,0.000530720,1.000000000,1.200000048,-0.013959822,0.042851388,0.000000000,-0.001099098,0.293466955,0.024898466,1759720944609721.000000000,0.000000000,1.000000000,1.000000000,9.080194473,1.000000000,-0.013859884,0.000125768,0.292742759,0.727771759,-0.319436759,0.284405261,-0.242485151,-0.505467892,0.168879449,0.000000000,-0.396631181,-0.522910178,0.190029219,-0.294219255,2.894352913,3.229618311,0.314159274,-4.628426075,-5.000000000
1759720944.709161,0.344049871,-0.290073782,0.072591931,0.000498295,1.000000000,1.200000048,-0.016307604,0.041969977,0.000000000,-0.006395139,0.293214411,0.024588425,1759720944708582.000000000,0.000000000,1.000000000,1.000000000,9.180119514,1.000000000,-0.016099973,-0.005102702,0.292874187,0.727550864,-0.275062621,0.331827760,-0.273683608,-0.475683182,0.170805320,0.000000000,-0.405653507,-0.492097646,0.160728872,-0.343278199,2.924522877,3.261010647,0.314159274,-4.633495808,-5.000000000
1759720944.809866,0.338708907,-0.268676430,0.080315389,0.000372410,1.000000000,1.200000048,-0.021521550,0.040506564,0.000000000,-0.011572142,0.292902738,0.023917604,1759720944809222.000000000,0.000000000,1.000000000,1.000000000,9.280185699,1.000000000,-0.021734921,-0.008002134,0.293143094,0.727111340,-0.229208782,0.376217276,-0.308160454,-0.441412181,0.172617897,0.000000000,-0.413312048,-0.456644058,0.119843163,-0.389199436,2.956732035,3.292447567,0.314159274,-4.644970417,-5.000000000
1759720944.909072,0.328078806,-0.241557494,0.087128945,0.000460386,1.000000000,1.200000048,-0.024206789,0.038713749,0.000000000,-0.013359400,0.293399870,0.022832213,1759720944908476.000000000,0.000000000,1.000000000,1.000000000,9.380101204,1.000000000,-0.028334118,-0.007658591,0.293803364,0.726831734,-0.189099580,0.417030185,-0.337528497,-0.403075665,0.175626397,0.000000000,-0.418842942,-0.416984648,0.078931995,-0.431420684,2.986080885,3.323836803,0.314159274,-4.652437687,-5.000000000
1759720945.009291,0.316870570,-0.210334361,0.097684555,0.000498056,1.000000000,1.200000048,-0.031440511,0.036831308,0.000000000,-0.011717098,0.293258160,0.021106837,1759720945008686.000000000,0.000000000,1.000000000,1.000000000,9.480149269,1.000000000,-0.033954479,-0.004532809,0.294578314,0.726855993,-0.148713008,0.454002500,-0.364219457,-0.360923648,0.180571809,0.000000000,-0.424948990,-0.373378068,0.035921030,-0.469668835,3.017561197,3.355267763,0.314159274,-4.656298637,-5.000000000
1759720945.111662,0.306072026,-0.180857271,0.092401162,0.000564098,1.000000000,1.200000048,-0.036851853,0.035265211,0.000000000,-0.009840987,0.293355584,0.018777704,1759720945110310.000000000,0.000000000,1.000000000,1.000000000,9.580351830,1.000000000,-0.036332827,0.000911102,0.295691580,0.727099895,-0.113578655,0.486778975,-0.384113759,-0.315325856,0.185690895,0.000000000,-0.429038644,-0.326206833,-0.002561657,-0.503576279,3.046444893,3.386747360,0.314159274,-4.657233715,-5.000000000
1759720945.209083,0.297447056,-0.144602701,0.087401822,0.000332117,1.000000000,1.200000048,-0.038630687,0.034095678,0.000000000,-0.004312840,0.294124633,0.015952421,1759720945208469.000000000,0.000000000,1.000000000,1.000000000,9.680124283,1.000000000,-0.038277384,0.004964867,0.297007263,0.727217138,-0.075360663,0.514881134,-0.402038097,-0.266986102,0.190077379,0.000000000,-0.425928384,-0.276199043,-0.045979571,-0.532648206,3.077926874,3.418091774,0.314159274,-4.659384727,-5.000000000
1759720945.309281,0.299791336,-0.107820928,0.088094726,0.000518322,1.000000000,1.200000048,-0.041342895,0.033677641,0.000000000,-0.001220722,0.294795781,0.013453295,1759720945308676.000000000,0.000000000,1.000000000,1.000000000,9.780118942,1.000000000,-0.037428681,0.008131050,0.299197227,0.727043509,-0.045140237,0.538244188,-0.410943002,-0.216049418,0.191963136,0.000000000,-0.421489090,-0.223504663,-0.076266453,-0.556817412,3.102746964,3.449506044,0.314159274,-4.667117119,-5.000000000
1759720945.410058,0.299702793,-0.061701238,0.091105692,0.000396729,1.000000000,1.200000048,-0.040803853,0.033613335,0.000000000,0.003558394,0.295410782,0.010236500,1759720945409383.000000000,0.000000000,1.000000000,1.000000000,9.880235672,1.000000000,-0.036358241,0.009289462,0.299304038,0.727000177,-0.006032496,0.556601644,-0.417943388,-0.163029835,0.195293218,0.000000000,-0.411725193,-0.168655530,-0.115538865,-0.575808406,3.135257959,3.480958700,0.314159274,-4.671670437,-5.000000000
1759720945.509119,0.298012793,-0.020089870,0.089989968,0.000456095,1.000000000,1.200000048,-0.037654139,0.033851355,0.000000000,0.003769778,0.296149462,0.007126252,1759720945508523.000000000,0.000000000,1.000000000,1.000000000,9.980091095,1.000000000,-0.035094649,0.008432449,0.298965394,0.727193415,0.033300828,0.569722772,-0.419045120,-0.108628303,0.199568629,0.000000000,-0.397113711,-0.112376757,-0.154364824,-0.589382291,3.168008804,3.512329340,0.314159274,-4.671943665,-5.000000000
1759720945.610722,0.301773220,0.016542422,0.080848105,0.000490427,1.000000000,1.200000048,-0.037242536,0.034147538,0.000000000,0.003999193,0.296743482,0.004390035,1759720945609934.000000000,0.000000000,1.000000000,1.000000000,10.080123901,1.000000000,-0.034044899,0.007884830,0.299705714,0.727524281,0.068545386,0.577548921,-0.416146129,-0.053116824,0.203118771,0.000000000,-0.381323338,-0.054949734,-0.190132350,-0.597478449,3.198325396,3.543755531,0.314159274,-4.669412136,-5.000000000
1759720945.709246,0.302845180,0.047218848,0.073241994,0.000575304,1.000000000,1.200000048,-0.035981104,0.034576092,0.000000000,0.005993638,0.296935976,0.001892476,1759720945708630.000000000,0.000000000,1.000000000,1.000000000,10.180124283,1.000000000,-0.036148056,0.010008233,0.301625520,0.727388263,0.100292556,0.579979241,-0.414069176,0.002872868,0.204072356,0.000000000,-0.367482543,0.002972002,-0.228595033,-0.599992633,3.227128029,3.575171471,0.314159274,-4.675249577,-5.000000000
1759720945.809065,0.300756693,0.082434759,0.075578682,0.000467300,1.000000000,1.200000048,-0.038868658,0.035219654,0.000000000,0.006842985,0.298232436,-0.000883191,1759720945808397.000000000,0.000000000,1.000000000,1.000000000,10.280097961,1.000000000,-0.038179059,0.012610987,0.302726656,0.727506101,0.132576331,0.576995909,-0.407478720,0.058820844,0.206824645,0.000000000,-0.353541374,0.060850583,-0.267540008,-0.596906364,3.257657528,3.606579065,0.314159274,-4.675843716,-5.000000000
1759720945.911808,0.306598485,0.115840644,0.068602145,0.000520229,1.000000000,1.200000048,-0.038666137,0.036116328,0.000000000,0.011107162,0.299573630,-0.003532575,1759720945910552.000000000,0.000000000,1.000000000,1.000000000,10.380208969,1.000000000,-0.039588090,0.014496973,0.305101424,0.727605760,0.164324954,0.568612993,-0.397220135,0.114295401,0.208712861,0.000000000,-0.335761189,0.118239403,-0.302508771,-0.588234186,3.286092520,3.638030052,0.314159274,-4.678566933,-5.000000000
1759720946.010062,0.308517694,0.154315948,0.069732770,0.000517368,1.000000000,1.200000048,-0.039593127,0.037388254,0.000000000,0.009704954,0.300768256,-0.006470375,1759720946009343.000000000,0.000000000,1.000000000,1.000000000,10.480129242,1.000000000,-0.040847953,0.012430917,0.305453569,0.727462411,0.199669152,0.554940403,-0.381412327,0.168598130,0.209693030,0.000000000,-0.312639624,0.174415961,-0.337838739,-0.574089766,3.317606449,3.669420719,0.314159274,-4.684557915,-5.000000000
1759720946.109332,0.303785443,0.193837360,0.085908912,0.000332355,1.000000000,1.200000048,-0.041526776,0.038616572,0.000000000,0.008888562,0.302233964,-0.009567084,1759720946108665.000000000,0.000000000,1.000000000,1.000000000,10.580129623,1.000000000,-0.040266514,0.009996668,0.305684656,0.727092505,0.233836979,0.536077499,-0.360616058,0.221370846,0.210960776,0.000000000,-0.287692606,0.229009718,-0.369259030,-0.554576039,3.349549770,3.700836897,0.314159274,-4.693237782,-5.000000000
1759720946.209308,0.301918626,0.233661845,0.091388814,0.000450134,1.000000000,1.200000048,-0.039464954,0.039845124,0.000000000,0.006993572,0.302871317,-0.012441313,1759720946208681.000000000,0.000000000,1.000000000,1.000000000,10.680150986,1.000000000,-0.041267697,0.006007540,0.306813002,0.726780653,0.266586065,0.512203991,-0.338081837,0.272086799,0.212769464,0.000000000,-0.256801337,0.281475723,-0.399397194,-0.529878676,3.379508257,3.732259512,0.314159274,-4.701573849,-5.000000000
1759720946.309652,0.297419965,0.266605496,0.093815841,0.000481844,1.000000000,1.200000048,-0.038231634,0.040805046,0.000000000,0.001157077,0.304319888,-0.015246456,1759720946308970.000000000,0.000000000,1.000000000,1.000000000,10.780199051,1.000000000,-0.043800786,-0.000460395,0.306026965,0.726468861,0.301853240,0.483537644,-0.310765922,0.320274115,0.215456828,0.000000000,-0.219508380,0.331325859,-0.430815667,-0.500223160,3.411918163,3.763690710,0.314159274,-4.711843967,-5.000000000
1759720946.408897,0.286173254,0.300968558,0.107203603,0.000313997,1.000000000,1.200000048,-0.043160476,0.041180030,0.000000000,-0.004142465,0.304692030,-0.018052125,1759720946408277.000000000,0.000000000,1.000000000,1.000000000,10.880105019,1.000000000,-0.045329437,-0.006161755,0.306463033,0.726440310,0.332774758,0.450402707,-0.280810565,0.365406007,0.219577283,0.000000000,-0.183497965,0.378015131,-0.453865796,-0.465944797,3.441856384,3.795077085,0.314159274,-4.716468811,-5.000000000
1759720946.511499,0.263763100,0.336242706,0.097576521,0.000384808,1.000000000,1.200000048,-0.042970613,0.041059203,0.000000000,-0.011704992,0.305123270,-0.021391315,1759720946510056.000000000,0.000000000,1.000000000,1.000000000,10.980283737,1.000000000,-0.044956088,-0.012326276,0.306057185,0.726535439,0.364689976,0.412963212,-0.245218426,0.407241374,0.223752782,0.000000000,-0.141138837,0.421294093,-0.476989746,-0.427213401,3.474351883,3.826548815,0.314159274,-4.720779419,-5.000000000
1759720946.609372,0.235220239,0.368419081,0.098329961,0.000500679,1.000000000,1.200000048,-0.041239247,0.040378660,0.000000000,-0.018003203,0.305289268,-0.024175968,1759720946608720.000000000,0.000000000,1.000000000,1.000000000,11.080124855,1.000000000,-0.048116881,-0.017286802,0.306446582,0.726512015,0.392543316,0.371799171,-0.210886762,0.445139915,0.227385640,0.000000000,-0.097905487,0.460500389,-0.499358356,-0.384628892,3.504228592,3.857914925,0.314159274,-4.725208759,-5.000000000
1759720946.709540,0.200171798,0.394653201,0.100260593,0.000502825,1.000000000,1.200000048,-0.045539223,0.039140593,0.000000000,-0.023193609,0.305864036,-0.027327646,1759720946708882.000000000,0.000000000,1.000000000,1.000000000,11.180130005,1.000000000,-0.052384309,-0.022905165,0.306481808,0.726469576,0.420748323,0.327098668,-0.172192901,0.478947401,0.230455950,0.000000000,-0.044877104,0.495474488,-0.520796001,-0.338385910,3.536364555,3.889332533,0.314159274,-4.730001450,-5.000000000
1759720946.810688,0.155962065,0.421279609,0.095952295,0.000416994,1.000000000,1.200000048,-0.050079837,0.037574243,0.000000000,-0.028279196,0.306264639,-0.030678358,1759720946809980.000000000,0.000000000,1.000000000,1.000000000,11.280279160,1.000000000,-0.055329096,-0.027191874,0.307039112,0.726686656,0.441348732,0.279273629,-0.134345174,0.508321166,0.233939230,0.000000000,0.003915429,0.525861859,-0.536889493,-0.288910568,3.565859556,3.920795202,0.314159274,-4.730248451,-5.000000000
1759720946.909360,0.107054517,0.453512996,0.094717361,0.000503540,1.000000000,1.200000048,-0.055590719,0.035519034,0.000000000,-0.032407735,0.306527197,-0.034903966,1759720946908740.000000000,0.000000000,1.000000000,1.000000000,11.380128860,1.000000000,-0.055340558,-0.031183394,0.306978911,0.727093458,0.458347559,0.228986979,-0.090319939,0.532868743,0.238193795,0.000000000,0.058087390,0.551256537,-0.549571812,-0.236888662,3.597630978,3.952163935,0.314159274,-4.727511883,-5.000000000
1759720947.010508,0.054224856,0.479387581,0.082043923,0.000499249,1.000000000,1.200000048,-0.052935772,0.033281378,0.000000000,-0.037886050,0.306937248,-0.039113890,1759720947009500.000000000,0.000000000,1.000000000,1.000000000,11.480127335,1.000000000,-0.052909836,-0.034100592,0.307953835,0.727593839,0.468305707,0.176489413,-0.046109080,0.552481353,0.242183894,0.000000000,0.107174136,0.571545899,-0.555720270,-0.182579562,3.626865864,3.983579636,0.314159274,-4.723372459,-5.000000000
1759720947.109297,-0.003142937,0.496411383,0.067597248,0.000505447,1.000000000,1.200000048,-0.048420995,0.030606948,0.000000000,-0.038455777,0.307074368,-0.043351337,1759720947108678.000000000,0.000000000,1.000000000,1.000000000,11.580155373,1.000000000,-0.048302956,-0.035414692,0.309552461,0.727981031,0.472006619,0.122328259,0.005105609,0.566939116,0.245145634,0.000000000,0.157342389,0.586502552,-0.555438519,-0.126549453,3.658694744,4.015004158,0.314159274,-4.718621254,-5.000000000
1759720947.209387,-0.052684546,0.506462455,0.066783272,0.000489473,1.000000000,1.200000048,-0.041914526,0.028252495,0.000000000,-0.039134432,0.307731599,-0.046826564,1759720947208725.000000000,0.000000000,1.000000000,1.000000000,11.680149078,1.000000000,-0.042164393,-0.036693387,0.310887843,0.728179157,0.470018446,0.067042910,0.054468747,0.576098442,0.246536076,0.000000000,0.200283244,0.595977902,-0.548623919,-0.069356367,3.688313484,4.046418190,0.314159274,-4.716964722,-5.000000000
1759720947.311420,-0.109416559,0.512697577,0.059525479,0.000395298,1.000000000,1.200000048,-0.033574674,0.025653271,0.000000000,-0.040275577,0.308485389,-0.049843613,1759720947310324.000000000,0.000000000,1.000000000,1.000000000,11.780220032,1.000000000,-0.034679648,-0.038585514,0.310207129,0.728426754,0.460759580,0.011088637,0.109139197,0.579880297,0.247970089,0.000000000,0.245976076,0.599890351,-0.537793279,-0.011471274,3.720853090,4.077856541,0.314159274,-4.713232517,-5.000000000
1759720947.409724,-0.159548014,0.512001336,0.045999881,0.000516415,1.000000000,1.200000048,-0.029103989,0.023111124,0.000000000,-0.044062652,0.309522569,-0.052190926,1759720947409057.000000000,0.000000000,1.000000000,1.000000000,11.880190849,1.000000000,-0.027170878,-0.039610047,0.310116917,0.728858411,0.446068555,-0.044913340,0.160383835,0.578244686,0.249809951,0.000000000,0.284175605,0.598198295,-0.521557391,0.046463173,3.751215935,4.109263420,0.314159274,-4.705437183,-5.000000000
1759720947.511126,-0.203356236,0.502825320,0.041540708,0.000568867,1.000000000,1.200000048,-0.017636415,0.020560345,0.000000000,-0.042527877,0.309664518,-0.053870279,1759720947510392.000000000,0.000000000,1.000000000,1.000000000,11.980230331,1.000000000,-0.019234532,-0.040466662,0.310878187,0.729323149,0.427056730,-0.100534134,0.212564602,0.571206629,0.250519395,0.000000000,0.321800649,0.590917349,-0.498003513,0.104003280,3.781773806,4.140691757,0.314159274,-4.698077202,-5.000000000
