__time,/plotjuggler/logging/ax,/plotjuggler/logging/ay,/plotjuggler/logging/az,/plotjuggler/logging/comp_time,/plotjuggler/logging/controller,/plotjuggler/logging/lookahead_time,/plotjuggler/logging/p,/plotjuggler/logging/pitch,/plotjuggler/logging/platform,/plotjuggler/logging/q,/plotjuggler/logging/r,/plotjuggler/logging/roll,/plotjuggler/logging/timestamp,/plotjuggler/logging/timestamp_sample,/plotjuggler/logging/traj_double,/plotjuggler/logging/traj_spin,/plotjuggler/logging/traj_time,/plotjuggler/logging/trajectory,/plotjuggler/logging/u_p,/plotjuggler/logging/u_q,/plotjuggler/logging/u_r,/plotjuggler/logging/u_throttle,/plotjuggler/logging/vx,/plotjuggler/logging/vx_ref,/plotjuggler/logging/vy,/plotjuggler/logging/vy_ref,/plotjuggler/logging/vz,/plotjuggler/logging/vz_ref,/plotjuggler/logging/x,/plotjuggler/logging/x_ref,/plotjuggler/logging/y,/plotjuggler/logging/y_ref,/plotjuggler/logging/yaw,/plotjuggler/logging/yaw_ref,/plotjuggler/logging/yawd_ref,/plotjuggler/logging/z,/plotjuggler/logging/z_ref
1759720776.309258,0.387179226,-0.040721152,-0.008585862,0.000930071,1.000000000,1.200000048,0.055251192,-0.005507642,0.000000000,-0.014494737,0.289009511,-0.048610065,1759720776308569.000000000,0.000000000,1.000000000,1.000000000,3.700003386,1.000000000,0.046060089,-0.025970684,0.291786730,0.727513194,0.111291364,0.579816937,-0.421003431,0.014016540,-0.043415625,0.000000000,-0.345027834,0.014500210,-0.129552752,-0.599824786,1.203387499,1.539381504,0.314159274,-4.400929451,-5.000000000
1759720776.409251,0.342476815,-0.008449795,-0.009202397,0.000885963,1.000000000,1.200000048,0.056729142,-0.006399841,0.000000000,-0.027185742,0.290158331,-0.043546651,1759720776408553.000000000,0.000000000,1.000000000,1.000000000,3.800015450,1.000000000,0.045282140,-0.035901379,0.294936985,0.727639794,0.156465441,0.575756550,-0.423346311,0.069918223,-0.042891949,0.000000000,-0.316214800,0.072330907,-0.170926258,-0.595624268,1.231081843,1.570801139,0.314159274,-4.399266243,-5.000000000
1759720776.510329,0.297909051,0.041689601,-0.014855525,0.000886917,1.000000000,1.200000048,0.056520224,-0.008700558,0.000000000,-0.036029045,0.291952640,-0.037988845,1759720776508874.000000000,0.000000000,1.000000000,1.000000000,3.900001526,1.000000000,0.044329483,-0.042146113,0.295156986,0.727749288,0.200017542,0.566322327,-0.420252889,0.125152722,-0.042847078,0.000000000,-0.281002879,0.129471377,-0.214925200,-0.585864484,1.262553811,1.602212787,0.314159274,-4.396865845,-5.000000000
1759720776.610148,0.251627624,0.089743964,-0.011454335,0.000596523,1.000000000,1.200000048,0.054437302,-0.011639910,0.000000000,-0.042703424,0.293090016,-0.033036713,1759720776608604.000000000,0.000000000,1.000000000,1.000000000,3.999995232,1.000000000,0.041652858,-0.046741106,0.296220511,0.727723777,0.235807225,0.551600635,-0.412175894,0.179223090,-0.043231815,0.000000000,-0.244108349,0.185407564,-0.254256696,-0.570634782,1.292638779,1.633626699,0.314159274,-4.396417618,-5.000000000
1759720776.711341,0.206001326,0.145963684,-0.017388722,0.000637054,1.000000000,1.200000048,0.051996365,-0.015497383,0.000000000,-0.045741957,0.294324636,-0.028089980,1759720776710002.000000000,0.000000000,1.000000000,1.000000000,4.099983215,1.000000000,0.039001130,-0.050933119,0.295505732,0.727829635,0.268211693,0.531730771,-0.399385154,0.231617257,-0.043806829,0.000000000,-0.203738093,0.239609703,-0.297341883,-0.550079286,1.324494004,1.665038705,0.314159274,-4.395492554,-5.000000000
1759720776.809362,0.174506202,0.201111034,-0.022268852,0.000836611,1.000000000,1.200000048,0.048229184,-0.019491956,0.000000000,-0.047951575,0.294855297,-0.023883998,1759720776808598.000000000,0.000000000,1.000000000,1.000000000,4.199976921,1.000000000,0.036693364,-0.048983175,0.296134889,0.728150547,0.295166075,0.506895781,-0.378241330,0.281852424,-0.043485399,0.000000000,-0.159507051,0.291578352,-0.329858810,-0.524387300,1.355170727,1.696452737,0.314159274,-4.390672684,-5.000000000
1759720776.911255,0.142498434,0.249032184,-0.032347623,0.000910759,1.000000000,1.200000048,0.043607548,-0.023660334,0.000000000,-0.047188312,0.295278698,-0.020199064,1759720776910546.000000000,0.000000000,1.000000000,1.000000000,4.300160408,1.000000000,0.034144219,-0.045524482,0.296146095,0.728755057,0.318595260,0.477268368,-0.350606710,0.329543680,-0.042971250,0.000000000,-0.115710095,0.340915293,-0.358948529,-0.493737549,1.386744142,1.727926254,0.314159274,-4.381263733,-5.000000000
1759720777.012045,0.103589572,0.301524878,-0.044479962,0.000861645,1.000000000,1.200000048,0.039395601,-0.027909825,0.000000000,-0.041851655,0.295392126,-0.016705589,1759720777010890.000000000,0.000000000,1.000000000,1.000000000,4.400178909,1.000000000,0.032243591,-0.040656347,0.293463707,0.729910135,0.339300990,0.443228066,-0.315686375,0.374076217,-0.043049447,0.000000000,-0.068309002,0.386984527,-0.388168365,-0.458522588,1.421677709,1.759348035,0.314159274,-4.367329597,-5.000000000
1759720777.110350,0.070001155,0.345519662,-0.051897015,0.000593424,1.000000000,1.200000048,0.034842055,-0.031775899,0.000000000,-0.040081348,0.295255601,-0.013862331,1759720777108738.000000000,0.000000000,1.000000000,1.000000000,4.499994278,1.000000000,0.031569704,-0.038565196,0.292408288,0.730906963,0.355663747,0.405129433,-0.278256655,0.415035278,-0.044589005,0.000000000,-0.019874705,0.429356962,-0.416396111,-0.419109285,1.455019474,1.790705919,0.314159274,-4.351634979,-5.000000000
1759720777.211862,0.037930060,0.384060889,-0.068479210,0.000856638,1.000000000,1.200000048,0.034350250,-0.035305262,0.000000000,-0.035555840,0.294700265,-0.011586089,1759720777211057.000000000,0.000000000,1.000000000,1.000000000,4.599982262,1.000000000,0.031327941,-0.034232199,0.291561604,0.731094182,0.368211389,0.363186508,-0.237071544,0.452194333,-0.048115056,0.000000000,0.026753375,0.467798263,-0.438052297,-0.375719041,1.486788988,1.822118282,0.314159274,-4.340936661,-5.000000000
1759720777.308828,0.000056403,0.415948510,-0.068365589,0.000850201,1.000000000,1.200000048,0.032128267,-0.038542300,0.000000000,-0.028618209,0.293765694,-0.009256739,1759720777308234.000000000,0.000000000,1.000000000,1.000000000,4.699967384,1.000000000,0.033043634,-0.027419860,0.289928764,0.731294811,0.377663106,0.317854941,-0.188431293,0.485131294,-0.052843831,0.000000000,0.080419660,0.501871765,-0.453057438,-0.328823209,1.520636320,1.853529453,0.314159274,-4.332295418,-5.000000000
1759720777.410537,-0.028768014,0.432803780,-0.073760740,0.000925779,1.000000000,1.200000048,0.033023596,-0.041007370,0.000000000,-0.023702718,0.293129355,-0.007170635,1759720777409082.000000000,0.000000000,1.000000000,1.000000000,4.800022125,1.000000000,0.032409109,-0.021556027,0.289969236,0.731497288,0.381892323,0.269522220,-0.140771836,0.513558090,-0.057351492,0.000000000,0.127545446,0.531279504,-0.460146993,-0.278822660,1.551420212,1.884962440,0.314159274,-4.323098660,-5.000000000
1759720777.511854,-0.062737204,0.448184371,-0.078464851,0.000802279,1.000000000,1.200000048,0.032247253,-0.042837381,0.000000000,-0.016773419,0.292822629,-0.005184403,1759720777511070.000000000,0.000000000,1.000000000,1.000000000,4.900109768,1.000000000,0.031183254,-0.017936822,0.291361272,0.731862962,0.381800026,0.218652859,-0.093669288,0.537191868,-0.061880596,0.000000000,0.172043517,0.555728793,-0.464070499,-0.226197943,1.581135154,1.916406035,0.314159274,-4.312557220,-5.000000000
1759720777.610626,-0.093532369,0.455947936,-0.087565735,0.000886917,1.000000000,1.200000048,0.030793624,-0.044234566,0.000000000,-0.014786784,0.293318689,-0.003488927,1759720777609329.000000000,0.000000000,1.000000000,1.000000000,5.000001907,1.000000000,0.030034266,-0.016869716,0.294457912,0.732169867,0.377699137,0.165843695,-0.048687514,0.555769742,-0.066492453,0.000000000,0.214346126,0.574947774,-0.466739208,-0.171566486,1.608982563,1.947788000,0.314159274,-4.300655365,-5.000000000
1759720777.710935,-0.120543458,0.458646774,-0.092810012,0.000912905,1.000000000,1.200000048,0.030931393,-0.045512270,0.000000000,-0.011968253,0.293862522,-0.001800311,1759720777710130.000000000,0.000000000,1.000000000,1.000000000,5.100007057,1.000000000,0.031933565,-0.014098437,0.296969086,0.732353091,0.371564358,0.111426987,-0.000951772,0.569182038,-0.072170280,0.000000000,0.262223750,0.588822842,-0.463651061,-0.115272015,1.637524009,1.979205608,0.314159274,-4.289899826,-5.000000000
1759720777.810978,-0.148402855,0.456977397,-0.098004930,0.000881672,1.000000000,1.200000048,0.033592023,-0.046532746,0.000000000,-0.009343581,0.295574039,-0.000067525,1759720777809451.000000000,0.000000000,1.000000000,1.000000000,5.200006485,1.000000000,0.034546878,-0.011175629,0.301304609,0.732522070,0.364495099,0.055973135,0.045716915,0.577279091,-0.077435859,0.000000000,0.306640327,0.597199321,-0.454041272,-0.057904609,1.663965940,2.010621309,0.314159274,-4.281450748,-5.000000000
1759720777.911942,-0.178174019,0.454391062,-0.097101547,0.000913382,1.000000000,1.200000048,0.037354071,-0.047347900,0.000000000,-0.005130407,0.297128171,0.002075444,1759720777910477.000000000,0.000000000,1.000000000,1.000000000,5.300096512,1.000000000,0.036884628,-0.005517313,0.302440584,0.732244313,0.352335423,-0.000054242,0.096790262,0.579986334,-0.084612340,0.000000000,0.352479696,0.600000024,-0.439255476,0.000056114,1.693984032,2.042065620,0.314159274,-4.278443336,-5.000000000
1759720778.010630,-0.210267588,0.442226619,-0.086138949,0.000724077,1.000000000,1.200000048,0.036591012,-0.047748160,0.000000000,-0.000750934,0.299270272,0.004164930,1759720778009889.000000000,0.000000000,1.000000000,1.000000000,5.400158882,1.000000000,0.038024191,-0.002797440,0.304903030,0.731698036,0.337306112,-0.056065548,0.142536417,0.577270150,-0.091745548,0.000000000,0.392550677,0.597190082,-0.422184438,0.058000207,1.722516775,2.073501110,0.314159274,-4.279359341,-5.000000000
1759720778.109947,-0.245561406,0.424958259,-0.078238539,0.000907898,1.000000000,1.200000048,0.038721848,-0.047821682,0.000000000,0.002235658,0.301349193,0.006512585,1759720778108558.000000000,0.000000000,1.000000000,1.000000000,5.500003815,1.000000000,0.040001690,0.000539486,0.305001765,0.731225014,0.318205059,-0.111432835,0.189426064,0.569180906,-0.098868579,0.000000000,0.434435844,0.588821650,-0.399837255,0.115278065,1.753279924,2.104868174,0.314159274,-4.280694485,-5.000000000
1759720778.210288,-0.275642633,0.413265198,-0.066571862,0.000969648,1.000000000,1.200000048,0.040347356,-0.047780659,0.000000000,0.007427061,0.302841812,0.008929971,1759720778209570.000000000,0.000000000,1.000000000,1.000000000,5.599971294,1.000000000,0.042044681,0.006605756,0.306959838,0.730710268,0.296659976,-0.165829167,0.235677510,0.555774093,-0.104422495,0.000000000,0.470636636,0.574952245,-0.369559944,0.171551451,1.782789230,2.136274099,0.314159274,-4.283434391,-5.000000000
1759720778.312365,-0.309174329,0.388583064,-0.059926879,0.000943184,1.000000000,1.200000048,0.040421989,-0.047255676,0.000000000,0.012150524,0.304591149,0.011587727,1759720778311184.000000000,0.000000000,1.000000000,1.000000000,5.700099468,1.000000000,0.044268135,0.011610041,0.306830943,0.730364203,0.270916849,-0.218761504,0.281911254,0.537147582,-0.108804576,0.000000000,0.508079052,0.555683017,-0.335741282,0.226310343,1.814473510,2.167730093,0.314159274,-4.284652710,-5.000000000
1759720778.411209,-0.336422235,0.362331510,-0.056962479,0.000596046,1.000000000,1.200000048,0.042081583,-0.046311520,0.000000000,0.017301338,0.305693477,0.014154485,1759720778410014.000000000,0.000000000,1.000000000,1.000000000,5.800078392,1.000000000,0.045976639,0.013931399,0.308723778,0.730296850,0.244118124,-0.269571990,0.322048098,0.513531983,-0.111901388,0.000000000,0.538977802,0.531252503,-0.301600903,0.278874159,1.843434453,2.199139595,0.314159274,-4.284430027,-5.000000000
1759720778.509881,-0.369409412,0.326555490,-0.054139640,0.000926733,1.000000000,1.200000048,0.044567596,-0.044892937,0.000000000,0.021799359,0.306973398,0.017159836,1759720778508608.000000000,0.000000000,1.000000000,1.000000000,5.899972916,1.000000000,0.046046514,0.017913967,0.309141427,0.729985178,0.211147115,-0.317826957,0.361106813,0.485149652,-0.115075193,0.000000000,0.567611575,0.501890779,-0.262089849,0.328794241,1.874543786,2.230522156,0.314159274,-4.285180092,-5.000000000
1759720778.611594,-0.398972273,0.294538945,-0.045304183,0.001040220,1.000000000,1.200000048,0.044466976,-0.043492876,0.000000000,0.021448921,0.308365583,0.019821711,1759720778610344.000000000,0.000000000,1.000000000,1.000000000,6.000141144,1.000000000,0.045192078,0.016115386,0.313309908,0.729801238,0.179650933,-0.363240540,0.389049292,0.452150911,-0.117225580,0.000000000,0.587721944,0.467753351,-0.227788612,0.375774950,1.900899887,2.261991024,0.314159274,-4.287635803,-5.000000000
1759720778.709282,-0.424346566,0.257082164,-0.041220333,0.000597954,1.000000000,1.200000048,0.042589482,-0.042010818,0.000000000,0.022673067,0.310036808,0.022691786,1759720778708633.000000000,0.000000000,1.000000000,1.000000000,6.100013733,1.000000000,0.044612516,0.017002743,0.315409392,0.729956448,0.143943876,-0.405132473,0.416348040,0.415032327,-0.118191019,0.000000000,0.607763112,0.429353923,-0.188375264,0.419112414,1.929541588,2.293366909,0.314159274,-4.283921242,-5.000000000
1759720778.809585,-0.444764465,0.213866636,-0.037220303,0.000929594,1.000000000,1.200000048,0.042426445,-0.040431924,0.000000000,0.024981212,0.311648995,0.025704794,1759720778808820.000000000,0.000000000,1.000000000,1.000000000,6.200044632,1.000000000,0.045190789,0.023865245,0.315479130,0.729957998,0.102049112,-0.443308800,0.445984155,0.373980552,-0.119171083,0.000000000,0.624461234,0.386885554,-0.135844365,0.458606124,1.960777998,2.324792624,0.314159274,-4.283020020,-5.000000000
1759720778.909293,-0.467722863,0.171157137,-0.036006790,0.000598907,1.000000000,1.200000048,0.042613655,-0.038617615,0.000000000,0.031904571,0.313153327,0.028538048,1759720778908515.000000000,0.000000000,1.000000000,1.000000000,6.300013065,1.000000000,0.045988198,0.027438974,0.317232132,0.729852617,0.062386058,-0.477323562,0.468300283,0.329463750,-0.120232776,0.000000000,0.637013078,0.340832621,-0.087097168,0.493794620,1.989504457,2.356198549,0.314159274,-4.284150124,-5.000000000
1759720779.011936,-0.481041163,0.123263299,-0.030757857,0.001012564,1.000000000,1.200000048,0.042800061,-0.036427006,0.000000000,0.033869095,0.314499438,0.031414934,1759720779010741.000000000,0.000000000,1.000000000,1.000000000,6.400078773,1.000000000,0.045701154,0.027068393,0.320143223,0.729639053,0.022057921,-0.506910980,0.483789951,0.281825155,-0.121116392,0.000000000,0.646836758,0.291550130,-0.041821484,0.524403036,2.017927408,2.387635231,0.314159274,-4.287017822,-5.000000000
1759720779.109337,-0.498064309,0.070533574,-0.027405096,0.000962973,1.000000000,1.200000048,0.040822081,-0.034096483,0.000000000,0.032224536,0.315779418,0.034562320,1759720779108679.000000000,0.000000000,1.000000000,1.000000000,6.499992371,1.000000000,0.040491428,0.026967715,0.320067048,0.729090333,-0.025704093,-0.531725168,0.492803782,0.231630042,-0.122825429,0.000000000,0.649032891,0.239622936,0.003352147,0.550073504,2.049515009,2.419023991,0.314159274,-4.296085835,-5.000000000
1759720779.210535,-0.505885661,0.028005937,-0.014101154,0.000918388,1.000000000,1.200000048,0.035584923,-0.032107439,0.000000000,0.034121796,0.317216128,0.037236020,1759720779209817.000000000,0.000000000,1.000000000,1.000000000,6.599986076,1.000000000,0.038940698,0.030131143,0.321435928,0.728879154,-0.071058273,-0.551597416,0.500859320,0.179232925,-0.122221194,0.000000000,0.648477912,0.185417742,0.050704367,0.570631444,2.078986406,2.450438023,0.314159274,-4.300634861,-5.000000000
1759720779.309726,-0.515216291,-0.024593361,-0.009534880,0.000912905,1.000000000,1.200000048,0.033396807,-0.029907070,0.000000000,0.036786206,0.318511814,0.039743315,1759720779309013.000000000,0.000000000,1.000000000,1.000000000,6.700095177,1.000000000,0.040494058,0.035814594,0.320890903,0.728675783,-0.119290940,-0.566334009,0.507338583,0.125099659,-0.121139780,0.000000000,0.645790756,0.129416481,0.107822753,0.585876584,2.110752583,2.481888056,0.314159274,-4.306811810,-5.000000000
1759720779.409285,-0.515047669,-0.071514070,-0.003670342,0.000942707,1.000000000,1.200000048,0.034374222,-0.027280463,0.000000000,0.043084510,0.319251895,0.042263214,1759720779408639.000000000,0.000000000,1.000000000,1.000000000,6.799994469,1.000000000,0.043414831,0.040995289,0.320869714,0.728649139,-0.166406289,-0.575757205,0.509486794,0.069912575,-0.118821457,0.000000000,0.641691089,0.072325058,0.167861313,0.595624983,2.141753674,2.513272524,0.314159274,-4.310854912,-5.000000000
1759720779.510298,-0.516950965,-0.123224184,-0.007015652,0.000988960,1.000000000,1.200000048,0.038150985,-0.024456942,0.000000000,0.046147306,0.320520848,0.044861939,1759720779509584.000000000,0.000000000,1.000000000,1.000000000,6.900077820,1.000000000,0.045513660,0.042920951,0.323261738,0.728856623,-0.209755287,-0.579818010,0.505376577,0.013971159,-0.116528302,0.000000000,0.635017455,0.014453264,0.222356692,0.599825919,2.170322418,2.544714451,0.314159274,-4.311429024,-5.000000000
1759720779.609392,-0.514885128,-0.184034899,-0.021534039,0.000949860,1.000000000,1.200000048,0.040123280,-0.021399403,0.000000000,0.048447758,0.321500212,0.047730662,1759720779608482.000000000,0.000000000,1.000000000,1.000000000,7.000005245,1.000000000,0.044748295,0.042462289,0.324962854,0.729351461,-0.253408194,-0.578462601,0.493434310,-0.042014126,-0.113555275,0.000000000,0.625384867,-0.043463916,0.273280442,0.598423660,2.199727058,2.576107740,0.314159274,-4.306731701,-5.000000000
1759720779.710920,-0.510103285,-0.241826415,-0.019663012,0.000680685,1.000000000,1.200000048,0.037919745,-0.018156173,0.000000000,0.047128290,0.321954668,0.051039882,1759720779709621.000000000,0.000000000,1.000000000,1.000000000,7.100203991,1.000000000,0.041190952,0.044588014,0.324126542,0.729742050,-0.301015079,-0.571688414,0.475192845,-0.097757518,-0.111586615,0.000000000,0.607981503,-0.101130843,0.330164254,0.591415703,2.232161522,2.607585907,0.314159274,-4.302874565,-5.000000000
1759720779.810252,-0.499440551,-0.298294514,-0.021050682,0.001003504,1.000000000,1.200000048,0.032862302,-0.014896343,0.000000000,0.050019551,0.322835445,0.054063447,1759720779809555.000000000,0.000000000,1.000000000,1.000000000,7.200077534,1.000000000,0.036033221,0.046445761,0.322685361,0.730118155,-0.348452836,-0.559603214,0.449876875,-0.152408630,-0.109722950,0.000000000,0.584181666,-0.157667816,0.384024173,0.578913510,2.265334606,2.638962269,0.314159274,-4.296904087,-5.000000000
1759720779.909674,-0.481855124,-0.348662466,-0.030290334,0.000928879,1.000000000,1.200000048,0.028809156,-0.011827771,0.000000000,0.049642056,0.322650999,0.056611151,1759720779908778.000000000,0.000000000,1.000000000,1.000000000,7.299986839,1.000000000,0.031839017,0.047675487,0.322694480,0.730358899,-0.391336381,-0.542299211,0.421786100,-0.205659211,-0.109435521,0.000000000,0.556405663,-0.212755919,0.431440115,0.561012387,2.296217918,2.670349598,0.314159274,-4.294545174,-5.000000000
1759720780.010682,-0.461211145,-0.394567877,-0.030065885,0.000961781,1.000000000,1.200000048,0.021885704,-0.008506347,0.000000000,0.052968256,0.323107481,0.058928277,1759720780009353.000000000,0.000000000,1.000000000,1.000000000,7.400077820,1.000000000,0.022024887,0.054315098,0.319879144,0.729949474,-0.437255472,-0.519895971,0.386781394,-0.257084280,-0.110831730,0.000000000,0.519079447,-0.265955508,0.480008364,0.537836075,2.329484940,2.701794147,0.314159274,-4.297864437,-5.000000000
1759720780.109228,-0.435800344,-0.435739875,-0.026422551,0.000893831,1.000000000,1.200000048,0.014744386,-0.005211337,0.000000000,0.055731803,0.322928667,0.060543898,1759720780108508.000000000,0.000000000,1.000000000,1.000000000,7.499997139,1.000000000,0.015253237,0.057844553,0.321057498,0.729347825,-0.480707735,-0.492680699,0.348632485,-0.306022644,-0.112810053,0.000000000,0.474337041,-0.316582620,0.519398510,0.509681702,2.360512495,2.733184576,0.314159274,-4.307313442,-5.000000000
1759720780.210410,-0.400860906,-0.477924526,-0.011321156,0.000974178,1.000000000,1.200000048,0.008152341,-0.001533714,0.000000000,0.062408920,0.322872281,0.061624914,1759720780209135.000000000,0.000000000,1.000000000,1.000000000,7.600061893,1.000000000,0.010025686,0.064010903,0.321233481,0.728991091,-0.522616565,-0.460823119,0.309930116,-0.352173537,-0.113246828,0.000000000,0.423473984,-0.364326030,0.559873581,0.476724803,2.390913248,2.764621019,0.314159274,-4.315866470,-5.000000000
1759720780.309922,-0.352950692,-0.513724923,0.000894070,0.000952482,1.000000000,1.200000048,-0.001719550,0.003083132,0.000000000,0.067908674,0.322707325,0.061936542,1759720780309222.000000000,0.000000000,1.000000000,1.000000000,7.700127125,1.000000000,0.000840915,0.069705926,0.319569141,0.728548169,-0.563643277,-0.424657285,0.262357175,-0.395032078,-0.111992508,0.000000000,0.362384021,-0.408663511,0.595373452,0.439310998,2.423725605,2.796057463,0.314159274,-4.323340416,-5.000000000
1759720780.409267,-0.292146385,-0.546488822,0.004244968,0.000948906,1.000000000,1.200000048,-0.010018593,0.007851614,0.000000000,0.071904488,0.322318643,0.061510675,1759720780408600.000000000,0.000000000,1.000000000,1.000000000,7.799990654,1.000000000,-0.006087484,0.071431510,0.320224553,0.728674054,-0.596407890,-0.384606093,0.212938219,-0.434122443,-0.109695077,0.000000000,0.302866071,-0.449102759,0.620591938,0.397877753,2.454556465,2.827430487,0.314159274,-4.327343941,-5.000000000
1759720780.508933,-0.232614279,-0.572509706,0.004095956,0.000574827,1.000000000,1.200000048,-0.016258404,0.012868209,0.000000000,0.072651811,0.322039396,0.060638592,1759720780508288.000000000,0.000000000,1.000000000,1.000000000,7.900014877,1.000000000,-0.012467752,0.070675060,0.320145011,0.728642404,-0.622656584,-0.340900660,0.159552142,-0.469223708,-0.106852889,0.000000000,0.242142513,-0.485415280,0.639743447,0.352664173,2.486092567,2.858854055,0.314159274,-4.329063416,-5.000000000
1759720780.609414,-0.156725720,-0.597714543,-0.003996305,0.000971079,1.000000000,1.200000048,-0.024086583,0.018358512,0.000000000,0.071852811,0.321681082,0.059010167,1759720780608749.000000000,0.000000000,1.000000000,1.000000000,8.000000000,1.000000000,-0.016811876,0.068194702,0.318358570,0.728916466,-0.641556144,-0.294029564,0.102367498,-0.499930769,-0.103911504,0.000000000,0.177807182,-0.517181933,0.658463120,0.304175675,2.519598722,2.890265465,0.314159274,-4.327399254,-5.000000000
1759720780.709480,-0.085378170,-0.615607262,-0.013071111,0.000958681,1.000000000,1.200000048,-0.025993107,0.023269091,0.000000000,0.067607135,0.321318090,0.057184912,1759720780708772.000000000,0.000000000,1.000000000,1.000000000,8.100006104,1.000000000,-0.020645937,0.065792814,0.318466783,0.729490161,-0.652870059,-0.244403899,0.044016875,-0.525976121,-0.100562379,0.000000000,0.113013864,-0.544126034,0.667471588,0.252837569,2.551290274,2.921683073,0.314159274,-4.320419788,-5.000000000
1759720780.810494,-0.012879877,-0.619317949,-0.023112630,0.000967026,1.000000000,1.200000048,-0.031539824,0.028274816,0.000000000,0.063894905,0.320443600,0.055051558,1759720780809760.000000000,0.000000000,1.000000000,1.000000000,8.200074196,1.000000000,-0.029644141,0.060152836,0.315781295,0.729724884,-0.656764030,-0.192462906,-0.022420164,-0.547121704,-0.098954424,0.000000000,0.044197042,-0.566001296,0.666683257,0.199104249,2.586255312,2.953120232,0.314159274,-4.315890789,-5.000000000
1759720780.912294,0.055148575,-0.613669574,-0.026459804,0.000988483,1.000000000,1.200000048,-0.038610090,0.032445937,0.000000000,0.055943105,0.319471210,0.052575782,1759720780910950.000000000,0.000000000,1.000000000,1.000000000,8.300166130,1.000000000,-0.033441488,0.055346116,0.315601736,0.729822874,-0.653227031,-0.138709515,-0.082903102,-0.563155234,-0.098924696,0.000000000,-0.017613461,-0.582588136,0.659962237,0.143495977,2.618290424,2.984565020,0.314159274,-4.314769268,-5.000000000
1759720781.014482,0.119144350,-0.604371428,-0.025779938,0.000833511,1.000000000,1.200000048,-0.043043766,0.036128812,0.000000000,0.052598916,0.318677127,0.049674045,1759720781012878.000000000,0.000000000,1.000000000,1.000000000,8.400946617,1.000000000,-0.033957157,0.052370433,0.316767335,0.729746819,-0.643955171,-0.083276361,-0.140268728,-0.573976636,-0.099442542,0.000000000,-0.078275785,-0.593782961,0.650386512,0.086149991,2.649257898,3.016226530,0.314159274,-4.315507889,-5.000000000
1759720781.109733,0.180101126,-0.580658376,-0.032689419,0.000998259,1.000000000,1.200000048,-0.044390518,0.039785754,0.000000000,0.047512110,0.317761868,0.046404246,1759720781108943.000000000,0.000000000,1.000000000,1.000000000,8.500017166,1.000000000,-0.038885247,0.046256758,0.314860731,0.729839563,-0.626329958,-0.028011488,-0.201680914,-0.579309523,-0.098978966,0.000000000,-0.140644163,-0.599299788,0.630379796,0.028978083,2.682473421,3.047350168,0.314159274,-4.313865185,-5.000000000
1759720781.212250,0.241219461,-0.559606671,-0.032854263,0.001114607,1.000000000,1.200000048,-0.048997324,0.042967793,0.000000000,0.037092861,0.317321301,0.042879883,1759720781211008.000000000,0.000000000,1.000000000,1.000000000,8.600078583,1.000000000,-0.045822512,0.034434628,0.311654240,0.729664981,-0.596624732,0.028065372,-0.267276198,-0.579306901,-0.099525489,0.000000000,-0.195270002,-0.599297106,0.595517933,-0.029033827,2.717960596,3.078785658,0.314159274,-4.313644886,-5.000000000
1759720781.309634,0.288212448,-0.521618128,-0.028111039,0.001005173,1.000000000,1.200000048,-0.054440334,0.044903297,0.000000000,0.027955128,0.316246271,0.039153527,1759720781308868.000000000,0.000000000,1.000000000,1.000000000,8.699997902,1.000000000,-0.047868475,0.030235462,0.310850680,0.729330599,-0.565739155,0.083800510,-0.322258085,-0.573900342,-0.101062790,0.000000000,-0.247558549,-0.593704045,0.561780870,-0.086692229,2.751351595,3.110176086,0.314159274,-4.318017960,-5.000000000
1759720781.411429,0.329272747,-0.480510414,-0.018631106,0.001129627,1.000000000,1.200000048,-0.057877038,0.046290006,0.000000000,0.026056141,0.315094113,0.035450287,1759720781410587.000000000,0.000000000,1.000000000,1.000000000,8.800123215,1.000000000,-0.047059566,0.029905213,0.313653916,0.728976071,-0.534681261,0.138867021,-0.367853552,-0.563116431,-0.102398232,0.000000000,-0.295567513,-0.582547963,0.528651953,-0.143658921,2.781664848,3.141631365,0.314159274,-4.322942257,-5.000000000
1759720781.512250,0.369690329,-0.427057236,-0.013855285,0.001093626,1.000000000,1.200000048,-0.058420569,0.047747742,0.000000000,0.022127822,0.313472807,0.030856380,1759720781511059.000000000,0.000000000,1.000000000,1.000000000,8.900102615,1.000000000,-0.049122665,0.026743660,0.308934569,0.728804827,-0.493398458,0.192556158,-0.417559743,-0.547088921,-0.102668554,0.000000000,-0.348702282,-0.565967381,0.483284146,-0.199200720,2.817457199,3.173040628,0.314159274,-4.325980186,-5.000000000
1759720781.609866,0.405545771,-0.374080032,-0.014772638,0.001035213,1.000000000,1.200000048,-0.056352936,0.048926763,0.000000000,0.018497977,0.311860949,0.026744017,1759720781609186.000000000,0.000000000,1.000000000,1.000000000,9.000089645,1.000000000,-0.047807004,0.022007247,0.307555497,0.728906095,-0.449530095,0.244452700,-0.456499100,-0.525953472,-0.102203377,0.000000000,-0.387188554,-0.544102609,0.438020200,-0.252888054,2.849975586,3.204452753,0.314159274,-4.323909283,-5.000000000
1759720781.709649,0.427382171,-0.318089783,-0.014820135,0.000951529,1.000000000,1.200000048,-0.053881779,0.049868502,0.000000000,0.014783826,0.309678167,0.022533631,1759720781708894.000000000,0.000000000,1.000000000,1.000000000,9.099985123,1.000000000,-0.045636903,0.019792100,0.305406958,0.728896439,-0.401707798,0.294022590,-0.490772009,-0.499934852,-0.101836510,0.000000000,-0.428022981,-0.517186165,0.391179502,-0.304168463,2.884066820,3.235835791,0.314159274,-4.324308872,-5.000000000
1759720781.809293,0.450301975,-0.266632020,-0.015813855,0.000968933,1.000000000,1.200000048,-0.050909311,0.050597236,0.000000000,0.014094772,0.308630913,0.018843764,1759720781808617.000000000,0.000000000,1.000000000,1.000000000,9.200005531,1.000000000,-0.040587600,0.018980531,0.306206316,0.728732884,-0.356003523,0.340909809,-0.515109122,-0.469217062,-0.102183722,0.000000000,-0.459372014,-0.485408396,0.348775297,-0.352673650,2.914535046,3.267257929,0.314159274,-4.326990604,-5.000000000
1759720781.909395,0.469615459,-0.217276171,-0.007116235,0.000948906,1.000000000,1.200000048,-0.043384947,0.051362522,0.000000000,0.012502263,0.307295144,0.015434727,1759720781908642.000000000,0.000000000,1.000000000,1.000000000,9.299989700,1.000000000,-0.036374368,0.016019791,0.305329382,0.728488445,-0.304416120,0.384597957,-0.535455048,-0.434129655,-0.102425449,0.000000000,-0.486486346,-0.449110240,0.301915675,-0.397869319,2.946914434,3.298669100,0.314159274,-4.331491470,-5.000000000
1759720782.010521,0.481284499,-0.177169517,-0.005369074,0.000999451,1.000000000,1.200000048,-0.038738176,0.052069165,0.000000000,0.010356463,0.306953192,0.012929036,1759720782009713.000000000,0.000000000,1.000000000,1.000000000,9.400080681,1.000000000,-0.033197545,0.014510469,0.306555688,0.728291929,-0.255255789,0.424736708,-0.550318182,-0.394946665,-0.102328576,0.000000000,-0.507807374,-0.408575147,0.257032007,-0.439393163,2.977037191,3.330113649,0.314159274,-4.335454464,-5.000000000
1759720782.109168,0.488160819,-0.143694997,-0.009180046,0.000662088,1.000000000,1.200000048,-0.036582410,0.052705497,0.000000000,0.010966058,0.306797981,0.010759041,1759720782108502.000000000,0.000000000,1.000000000,1.000000000,9.500023842,1.000000000,-0.033424526,0.016883796,0.307564527,0.728265822,-0.207802474,0.460852236,-0.562760830,-0.352135450,-0.101528399,0.000000000,-0.532676816,-0.364286631,0.207699791,-0.476754934,3.007248640,3.361511469,0.314159274,-4.337561607,-5.000000000
1759720782.209627,0.497516096,-0.102003455,-0.007448717,0.000910282,1.000000000,1.200000048,-0.037529640,0.053607620,0.000000000,0.010949329,0.306598872,0.008641499,1759720782208894.000000000,0.000000000,1.000000000,1.000000000,9.599984169,1.000000000,-0.036564268,0.015229757,0.306345791,0.728329718,-0.154479802,0.492675126,-0.573229790,-0.306031674,-0.100480229,0.000000000,-0.551107526,-0.316591948,0.150982946,-0.509675920,3.040099382,3.392915010,0.314159274,-4.337566376,-5.000000000
1759720782.309007,0.506491840,-0.062338378,-0.004041008,0.000648499,1.000000000,1.200000048,-0.039652482,0.054478165,0.000000000,0.009565308,0.305992484,0.006246354,1759720782308336.000000000,0.000000000,1.000000000,1.000000000,9.699995041,1.000000000,-0.040420122,0.010862561,0.304835945,0.728489697,-0.098139778,0.519914031,-0.580752432,-0.257047772,-0.099029317,0.000000000,-0.559913337,-0.265917748,0.090750918,-0.537854791,3.073276043,3.424334288,0.314159274,-4.335989952,-5.000000000
1759720782.409592,0.513069093,-0.021064403,-0.008032656,0.000700712,1.000000000,1.200000048,-0.041926999,0.055105425,0.000000000,0.005062133,0.305937231,0.003926065,1759720782408892.000000000,0.000000000,1.000000000,1.000000000,9.800077438,1.000000000,-0.045315538,0.005270131,0.305093586,0.728710055,-0.043179777,0.542311966,-0.584773302,-0.205625638,-0.097495556,0.000000000,-0.559042156,-0.212721199,0.031557601,-0.561025560,3.104515553,3.455776215,0.314159274,-4.333761692,-5.000000000
1759720782.509446,0.508717835,0.028475778,-0.014169141,0.000650644,1.000000000,1.200000048,-0.047489103,0.055199869,0.000000000,-0.003956360,0.305352867,0.000995336,1759720782508748.000000000,0.000000000,1.000000000,1.000000000,9.900007248,1.000000000,-0.051394805,-0.002628839,0.302373081,0.728866458,0.018110773,0.559615791,-0.584610164,-0.152362511,-0.096114561,0.000000000,-0.548896432,-0.157620102,-0.036005959,-0.578926504,3.139089823,3.487170219,0.314159274,-4.332039356,-5.000000000
1759720782.609117,0.497519344,0.072508901,-0.022634862,0.000599384,1.000000000,1.200000048,-0.051052928,0.054605104,0.000000000,-0.009873261,0.304315239,-0.002267350,1759720782608272.000000000,0.000000000,1.000000000,1.000000000,10.000011444,1.000000000,-0.051353738,-0.006372825,0.301906198,0.728992283,0.072681807,0.571708739,-0.576831818,-0.097638324,-0.095242456,0.000000000,-0.536255479,-0.101007544,-0.090803348,-0.591436803,3.170971155,3.518587351,0.314159274,-4.329925537,-5.000000000
1759720782.709724,0.482113183,0.121813729,-0.021791084,0.000926495,1.000000000,1.200000048,-0.050945174,0.053623576,0.000000000,-0.014911992,0.303227514,-0.005699168,1759720782708980.000000000,0.000000000,1.000000000,1.000000000,10.100048065,1.000000000,-0.050103590,-0.011409130,0.301324695,0.729027271,0.127188295,0.578464746,-0.563039601,-0.041984450,-0.095185339,0.000000000,-0.514766157,-0.043433215,-0.143237427,-0.598425925,3.202913284,3.550014734,0.314159274,-4.328918934,-5.000000000
1759720782.809320,0.453209817,0.174714789,-0.023828818,0.000983715,1.000000000,1.200000048,-0.050279565,0.052130565,0.000000000,-0.021215426,0.301899523,-0.009437308,1759720782808600.000000000,0.000000000,1.000000000,1.000000000,10.200012207,1.000000000,-0.048707150,-0.019729787,0.298317134,0.728972495,0.185251623,0.579816818,-0.541993976,0.014021751,-0.095447265,0.000000000,-0.482112974,0.014505601,-0.197326735,-0.599824607,3.237653971,3.581419706,0.314159274,-4.328738213,-5.000000000
1759720782.909161,0.415488511,0.219657853,-0.025368294,0.000700712,1.000000000,1.200000048,-0.048017282,0.049924519,0.000000000,-0.029312514,0.300273508,-0.013102465,1759720782908406.000000000,0.000000000,1.000000000,1.000000000,10.299998283,1.000000000,-0.046803251,-0.026301078,0.295590967,0.728875339,0.239498913,0.575757682,-0.515560806,0.069908805,-0.095885575,0.000000000,-0.443580031,0.072321154,-0.247327760,-0.595625401,3.272121191,3.612831116,0.314159274,-4.329309940,-5.000000000
1759720783.009810,0.373853296,0.256440282,-0.028103588,0.000909328,1.000000000,1.200000048,-0.043921940,0.047379777,0.000000000,-0.032843281,0.298670977,-0.016250744,1759720783009137.000000000,0.000000000,1.000000000,1.000000000,10.400080681,1.000000000,-0.043226752,-0.028039176,0.295496166,0.728732646,0.284314901,0.566312730,-0.486385822,0.125195920,-0.096370369,0.000000000,-0.406488121,0.129516080,-0.287368178,-0.585854590,3.303513288,3.644272804,0.314159274,-4.329786301,-5.000000000
1759720783.109360,0.333182305,0.296165705,-0.021571292,0.000943422,1.000000000,1.200000048,-0.039445061,0.044643816,0.000000000,-0.035868187,0.297273695,-0.019178709,1759720783108503.000000000,0.000000000,1.000000000,1.000000000,10.499979019,1.000000000,-0.035556052,-0.029323129,0.294922709,0.728970468,0.324083388,0.551603377,-0.448396444,0.179214582,-0.095647387,0.000000000,-0.367658913,0.185398757,-0.318517178,-0.570637643,3.335570335,3.675656796,0.314159274,-4.326259613,-5.000000000
1759720783.210887,0.282734841,0.321231306,-0.022788530,0.000955582,1.000000000,1.200000048,-0.032243617,0.041544497,0.000000000,-0.037222642,0.296111912,-0.021768231,1759720783209690.000000000,0.000000000,1.000000000,1.000000000,10.599997520,1.000000000,-0.029938696,-0.032455578,0.291851759,0.728933752,0.362609357,0.531727552,-0.404485166,0.231624603,-0.095689096,0.000000000,-0.319624424,0.239617303,-0.349862605,-0.550075948,3.370471001,3.707078457,0.314159274,-4.326037884,-5.000000000
1759720783.310122,0.234800324,0.337709606,-0.025482846,0.000972748,1.000000000,1.200000048,-0.026652368,0.038217995,0.000000000,-0.039708622,0.294249177,-0.023721481,1759720783309448.000000000,0.000000000,1.000000000,1.000000000,10.700021744,1.000000000,-0.027609507,-0.031832181,0.289861530,0.728940904,0.393722028,0.506883740,-0.361799181,0.281874150,-0.095763437,0.000000000,-0.271827519,0.291600823,-0.381379545,-0.524374843,3.404480934,3.738502026,0.314159274,-4.325373173,-5.000000000
1759720783.409061,0.191311717,0.347613305,-0.030486843,0.000572443,1.000000000,1.200000048,-0.025475003,0.035433210,0.000000000,-0.033614114,0.293826997,-0.025109977,1759720783408325.000000000,0.000000000,1.000000000,1.000000000,10.800120354,1.000000000,-0.029511001,-0.026452824,0.291512281,0.729357362,0.415635973,0.477281064,-0.324118257,0.329525322,-0.095496729,0.000000000,-0.229821980,0.340896279,-0.409976184,-0.493750662,3.434354782,3.769948959,0.314159274,-4.321336746,-5.000000000
1759720783.511579,0.149071321,0.361145467,-0.040097158,0.000980377,1.000000000,1.200000048,-0.027572993,0.032991108,0.000000000,-0.027756853,0.293129086,-0.026810341,1759720783510447.000000000,0.000000000,1.000000000,1.000000000,10.900068283,1.000000000,-0.030735333,-0.022488203,0.291645408,0.729706168,0.433923274,0.443268061,-0.283684134,0.374028832,-0.095109530,0.000000000,-0.184629709,0.386935502,-0.437198311,-0.458563983,3.465413809,3.801348448,0.314159274,-4.312883377,-5.000000000
1759720783.609313,0.119306654,0.375453025,-0.049216669,0.000949860,1.000000000,1.200000048,-0.024966830,0.031349655,0.000000000,-0.021980971,0.292851001,-0.028427441,1759720783608591.000000000,0.000000000,1.000000000,1.000000000,10.999983788,1.000000000,-0.031361498,-0.015418487,0.294648677,0.730340004,0.445115209,0.405133635,-0.246347412,0.415031165,-0.094681740,0.000000000,-0.148509711,0.429352701,-0.459930301,-0.419113636,3.493460417,3.832737923,0.314159274,-4.300532818,-5.000000000
1759720783.709063,0.094862752,0.383143842,-0.059535723,0.000933170,1.000000000,1.200000048,-0.026669139,0.030410333,0.000000000,-0.016000006,0.293531328,-0.029965043,1759720783708439.000000000,0.000000000,1.000000000,1.000000000,11.099981308,1.000000000,-0.033799220,-0.011861549,0.298147798,0.730503261,0.455554307,0.363187015,-0.208999276,0.452193916,-0.097406827,0.000000000,-0.109317310,0.467797816,-0.479399055,-0.375719577,3.521277428,3.864153147,0.314159274,-4.295780659,-5.000000000
1759720783.808721,0.072608314,0.396337301,-0.060244460,0.000525475,1.000000000,1.200000048,-0.029602267,0.029955825,0.000000000,-0.012486049,0.295207679,-0.031760026,1759720783808062.000000000,0.000000000,1.000000000,1.000000000,11.199981689,1.000000000,-0.035943065,-0.010519415,0.300920337,0.730466843,0.464520186,0.317848116,-0.170442969,0.485135764,-0.100810096,0.000000000,-0.067532912,0.501876414,-0.496092200,-0.328816146,3.549319983,3.895569324,0.314159274,-4.294807911,-5.000000000
1759720783.909198,0.046722975,0.418876976,-0.051043924,0.000976086,1.000000000,1.200000048,-0.030136358,0.029704945,0.000000000,-0.012384841,0.296524137,-0.033967752,1759720783908513.000000000,0.000000000,1.000000000,1.000000000,11.299980164,1.000000000,-0.036763106,-0.012506273,0.300687522,0.730193019,0.471211195,0.269543171,-0.125890344,0.513547122,-0.104360320,0.000000000,-0.021143328,0.531268120,-0.510021448,-0.278844327,3.580392122,3.926984549,0.314159274,-4.295583725,-5.000000000
1759720784.009232,0.020206926,0.433741271,-0.043125819,0.000950813,1.000000000,1.200000048,-0.031966597,0.029425930,0.000000000,-0.013566763,0.297905207,-0.036201589,1759720784008555.000000000,0.000000000,1.000000000,1.000000000,11.399991989,1.000000000,-0.034312397,-0.012820590,0.303066164,0.729984105,0.472860664,0.218714267,-0.082143784,0.537166834,-0.106920324,0.000000000,0.018858993,0.555702925,-0.515950620,-0.226261467,3.609627724,3.958404064,0.314159274,-4.297074795,-5.000000000
1759720784.109352,-0.003150737,0.444864720,-0.036462206,0.000931501,1.000000000,1.200000048,-0.029907422,0.029086921,0.000000000,-0.015152403,0.299237043,-0.038407229,1759720784108601.000000000,0.000000000,1.000000000,1.000000000,11.500021935,1.000000000,-0.033630896,-0.014348204,0.304600209,0.729688406,0.472298145,0.165832669,-0.037745543,0.555773020,-0.109733425,0.000000000,0.062131140,0.574951172,-0.519939661,-0.171555087,3.639124870,3.989829540,0.314159274,-4.300385475,-5.000000000
1759720784.208930,-0.033302478,0.459971189,-0.024928709,0.000622988,1.000000000,1.200000048,-0.027436420,0.028557217,0.000000000,-0.018028775,0.300905824,-0.040489264,1759720784208278.000000000,0.000000000,1.000000000,1.000000000,11.600069046,1.000000000,-0.032168169,-0.020721007,0.303735942,0.729180038,0.470086515,0.111392617,0.012321308,0.569188774,-0.112135239,0.000000000,0.112587996,0.588829815,-0.517352223,-0.115236461,3.671253920,4.021260262,0.314159274,-4.307193279,-5.000000000
1759720784.309474,-0.065682419,0.464992404,-0.014147720,0.001007795,1.000000000,1.200000048,-0.026718112,0.027608000,0.000000000,-0.024129912,0.301565439,-0.042476509,1759720784308775.000000000,0.000000000,1.000000000,1.000000000,11.700006485,1.000000000,-0.027845103,-0.025491558,0.302814156,0.728708684,0.463820487,0.055973135,0.063559987,0.577279091,-0.113419868,0.000000000,0.158359155,0.597199321,-0.508553445,-0.057904609,3.703415871,4.052656651,0.314159274,-4.314255714,-5.000000000
1759720784.409330,-0.097596735,0.464855194,-0.005522742,0.000940323,1.000000000,1.200000048,-0.021745507,0.026337896,0.000000000,-0.027186753,0.302282035,-0.044041160,1759720784408659.000000000,0.000000000,1.000000000,1.000000000,11.799995422,1.000000000,-0.024689939,-0.027642487,0.304084152,0.728392720,0.453969836,0.000002834,0.111503504,0.579986334,-0.113350846,0.000000000,0.195740074,0.600000024,-0.495441526,-0.000002932,3.733086824,4.084068775,0.314159274,-4.320272923,-5.000000000
1759720784.510747,-0.133544862,0.459819078,0.003213063,0.000900269,1.000000000,1.200000048,-0.018191861,0.024812194,0.000000000,-0.033259861,0.302577347,-0.045263525,1759720784509880.000000000,0.000000000,1.000000000,1.000000000,11.899976730,1.000000000,-0.024807749,-0.035071291,0.305332541,0.727837503,0.444473654,-0.055964038,0.159639016,0.577279985,-0.112852216,0.000000000,0.242155164,0.597200274,-0.476365179,0.057895195,3.762701035,4.115478992,0.314159274,-4.329850197,-5.000000000
1759720784.608763,-0.175078765,0.448966563,0.011695548,0.000540495,1.000000000,1.200000048,-0.018335210,0.022486074,0.000000000,-0.041366316,0.303270519,-0.046427488,1759720784608025.000000000,0.000000000,1.000000000,1.000000000,11.999968529,1.000000000,-0.026273502,-0.043049812,0.304340005,0.727790117,0.431997478,-0.111413427,0.209181726,0.569184661,-0.109806016,0.000000000,0.295899928,0.588825583,-0.455653936,0.115257978,3.794573784,4.146892548,0.314159274,-4.336189270,-5.000000000
1759720784.710029,-0.216541275,0.425030291,0.014448537,0.000920773,1.000000000,1.200000048,-0.021247139,0.019409131,0.000000000,-0.047833204,0.303603619,-0.047753002,1759720784709162.000000000,0.000000000,1.000000000,1.000000000,12.100024223,1.000000000,-0.026748683,-0.052018072,0.303764492,0.727394640,0.416537941,-0.165857598,0.257446229,0.555765629,-0.107829489,0.000000000,0.352130622,0.574943483,-0.428365409,0.171580866,3.826300621,4.178325653,0.314159274,-4.345499992,-5.000000000
1759720784.809694,-0.266208142,0.402338743,0.018928198,0.001059771,1.000000000,1.200000048,-0.021169210,0.015892291,0.000000000,-0.056105040,0.303762347,-0.049311899,1759720784808919.000000000,0.000000000,1.000000000,1.000000000,12.200035095,1.000000000,-0.027227996,-0.056654748,0.304835767,0.727464974,0.396763831,-0.218727961,0.300514758,0.537161291,-0.104506083,0.000000000,0.400574446,0.555697143,-0.397036374,0.226275623,3.855766058,4.209744930,0.314159274,-4.350621700,-5.000000000
1759720784.913421,-0.311023951,0.383823991,0.008699483,0.001224995,1.000000000,1.200000048,-0.019971605,0.012170264,0.000000000,-0.058631465,0.304103553,-0.050813645,1759720784911201.000000000,0.000000000,1.000000000,1.000000000,12.300065994,1.000000000,-0.026893605,-0.058797073,0.308248669,0.727603555,0.372696489,-0.269565850,0.338115782,0.513535202,-0.100668438,0.000000000,0.439126223,0.531255841,-0.364336312,0.278867781,3.883162022,4.241170883,0.314159274,-4.350861073,-5.000000000
1759720785.009868,-0.365255833,0.350553155,0.000953674,0.001017570,1.000000000,1.200000048,-0.015731415,0.007564875,0.000000000,-0.062297206,0.304951429,-0.052429702,1759720785009145.000000000,0.000000000,1.000000000,1.000000000,12.400022507,1.000000000,-0.019781603,-0.060509991,0.307440132,0.727634490,0.338718772,-0.317850322,0.381125838,0.485134333,-0.095788032,0.000000000,0.478536636,0.501874924,-0.321970373,0.328818411,3.915599346,4.272572994,0.314159274,-4.345424175,-5.000000000
1759720785.109222,-0.414040685,0.315714955,-0.004381872,0.000610113,1.000000000,1.200000048,-0.011500343,0.003124176,0.000000000,-0.063405685,0.305730551,-0.053642865,1759720785108424.000000000,0.000000000,1.000000000,1.000000000,12.499985695,1.000000000,-0.017033633,-0.062194608,0.308158964,0.728296161,0.304334581,-0.363172501,0.416353315,0.452205569,-0.091862440,0.000000000,0.515799999,0.467809886,-0.279879302,0.375704557,3.945338964,4.303977489,0.314159274,-4.339921474,-5.000000000
1759720785.211767,-0.459431529,0.267808735,-0.010624527,0.001078367,1.000000000,1.200000048,-0.005341340,-0.001710308,0.000000000,-0.064643137,0.305973083,-0.054542463,1759720785210375.000000000,0.000000000,1.000000000,1.000000000,12.600103378,1.000000000,-0.010930669,-0.065328017,0.307533950,0.728798270,0.261988163,-0.405168325,0.451665282,0.414997309,-0.088774011,0.000000000,0.552522063,0.429317683,-0.227419183,0.419149518,3.977547646,4.335430145,0.314159274,-4.333644867,-5.000000000
1759720785.310011,-0.492748767,0.222887576,-0.025259329,0.001045227,1.000000000,1.200000048,-0.001227453,-0.006351227,0.000000000,-0.067576803,0.306182981,-0.055009633,1759720785309195.000000000,0.000000000,1.000000000,1.000000000,12.700087547,1.000000000,-0.006459990,-0.065806523,0.308719426,0.729097307,0.217536926,-0.443324417,0.479401737,0.373962045,-0.087753542,0.000000000,0.579423010,0.386866421,-0.175889984,0.458622277,4.007473469,4.366841316,0.314159274,-4.330295086,-5.000000000
1759720785.410717,-0.526914954,0.168033794,-0.025061889,0.001281261,1.000000000,1.200000048,0.004879887,-0.011195914,0.000000000,-0.065927856,0.306973785,-0.055065162,1759720785409930.000000000,0.000000000,1.000000000,1.000000000,12.800136566,1.000000000,-0.001621313,-0.060950924,0.309945911,0.728969932,0.167314112,-0.477362812,0.498931140,0.329406887,-0.088091455,0.000000000,0.596779227,0.340773761,-0.126763478,0.493835241,4.037774563,4.398272514,0.314159274,-4.331699848,-5.000000000
1759720785.509699,-0.554616451,0.113889493,-0.017874872,0.000746965,1.000000000,1.200000048,0.010957116,-0.015953725,0.000000000,-0.060987562,0.307660699,-0.054677442,1759720785508958.000000000,0.000000000,1.000000000,1.000000000,12.900044441,1.000000000,0.003854744,-0.059481565,0.309262991,0.728889167,0.112569191,-0.506901622,0.517004907,0.281841964,-0.088077150,0.000000000,0.614627004,0.291567534,-0.069808908,0.524393320,4.070132256,4.429659367,0.314159274,-4.333453655,-5.000000000
1759720785.612187,-0.570756137,0.062385511,-0.017626209,0.000679731,1.000000000,1.200000048,0.015478568,-0.019985558,0.000000000,-0.057809945,0.307880670,-0.053979445,1759720785610747.000000000,0.000000000,1.000000000,1.000000000,13.000005722,1.000000000,0.008703336,-0.056926955,0.310960203,0.729296029,0.058893386,-0.531728208,0.527944922,0.231623054,-0.086544186,0.000000000,0.622624099,0.239615709,-0.016632941,0.550076663,4.099761009,4.461063385,0.314159274,-4.328215122,-5.000000000
1759720785.712379,-0.583636522,0.006258728,-0.024290754,0.001056194,1.000000000,1.200000048,0.021295605,-0.024039805,0.000000000,-0.054211028,0.308652401,-0.052837547,1759720785711113.000000000,0.000000000,1.000000000,1.000000000,13.100135803,1.000000000,0.015283002,-0.054997094,0.310795009,0.729760110,-0.000364727,-0.551623285,0.534382641,0.179153353,-0.085295610,0.000000000,0.625908196,0.185335413,0.043179758,0.570658207,4.131672382,4.492519855,0.314159274,-4.320633888,-5.000000000
1759720785.810671,-0.587493241,-0.051466297,-0.036004927,0.001112223,1.000000000,1.200000048,0.026076278,-0.027919108,0.000000000,-0.053335957,0.309399694,-0.051278863,1759720785809885.000000000,0.000000000,1.000000000,1.000000000,13.200094223,1.000000000,0.023130989,-0.053236350,0.311309338,0.730318546,-0.059888262,-0.566333890,0.535364449,0.125100181,-0.085116304,0.000000000,0.623701394,0.129417017,0.104168542,0.585876465,4.163382530,4.523922920,0.314159274,-4.312525272,-5.000000000
1759720785.910271,-0.585766912,-0.105951630,-0.045200806,0.001178026,1.000000000,1.200000048,0.028533055,-0.031340111,0.000000000,-0.050214041,0.310699880,-0.049581449,1759720785909488.000000000,0.000000000,1.000000000,1.000000000,13.300040245,1.000000000,0.026606170,-0.051053163,0.313208938,0.731047869,-0.115346566,-0.575760305,0.530420959,0.069887228,-0.086587712,0.000000000,0.614990950,0.072298840,0.158903152,0.595628142,4.192632675,4.555322170,0.314159274,-4.306130409,-5.000000000
1759720786.013629,-0.577368200,-0.150949255,-0.045808960,0.001301050,1.000000000,1.200000048,0.031876598,-0.034055848,0.000000000,-0.049119756,0.311471492,-0.047924403,1759720786012592.000000000,0.000000000,1.000000000,1.000000000,13.401136398,1.000000000,0.024320148,-0.049570654,0.319515437,0.730450511,-0.159679219,-0.579832017,0.520969868,0.013377442,-0.088195458,0.000000000,0.605478644,0.013839059,0.200837478,0.599840403,4.216917515,4.587082386,0.314159274,-4.301470280,-5.000000000
1759720786.111331,-0.558873951,-0.206772611,-0.051869076,0.001219273,1.000000000,1.200000048,0.037401151,-0.037528872,0.000000000,-0.043545522,0.313235611,-0.045273084,1759720786110297.000000000,0.000000000,1.000000000,1.000000000,13.500204086,1.000000000,0.026848191,-0.045395453,0.317356765,0.730319262,-0.218207926,-0.578454494,0.501764238,-0.042125046,-0.092100643,0.000000000,0.591264009,-0.043578658,0.257685691,0.598415315,4.250962734,4.618205070,0.314159274,-4.299885273,-5.000000000
1759720786.213128,-0.538134038,-0.263628244,-0.045141201,0.001065254,1.000000000,1.200000048,0.034672812,-0.040456325,0.000000000,-0.040981565,0.314817280,-0.042697173,1759720786211625.000000000,0.000000000,1.000000000,1.000000000,13.600141525,1.000000000,0.027717169,-0.042552285,0.317190886,0.730105102,-0.269762874,-0.571694314,0.478608340,-0.097722992,-0.095741607,0.000000000,0.574261546,-0.101095133,0.309665382,0.591421843,4.282670975,4.649601460,0.314159274,-4.300457001,-5.000000000
1759720786.313866,-0.515347421,-0.304560333,-0.041481104,0.001224041,1.000000000,1.200000048,0.033688370,-0.042941689,0.000000000,-0.038823992,0.315785766,-0.040618286,1759720786312154.000000000,0.000000000,1.000000000,1.000000000,13.700551033,1.000000000,0.028484393,-0.041353591,0.318963617,0.729790747,-0.316411376,-0.559533417,0.452662587,-0.152664617,-0.099106185,0.000000000,0.551852703,-0.157932639,0.356236130,0.578841329,4.312306404,4.681146145,0.314159274,-4.302727699,-5.000000000
1759720786.413813,-0.486755043,-0.347606629,-0.031909902,0.001176357,1.000000000,1.200000048,0.038618736,-0.045566265,0.000000000,-0.036447257,0.316815019,-0.038343128,1759720786412212.000000000,0.000000000,1.000000000,1.000000000,13.800312042,1.000000000,0.034351896,-0.036932528,0.317920387,0.729197741,-0.366060048,-0.542234659,0.420204848,-0.205829307,-0.101897791,0.000000000,0.519193470,-0.212931886,0.402928501,0.560945630,4.344708920,4.712486744,0.314159274,-4.309597015,-5.000000000
1759720786.511855,-0.456017166,-0.388444036,-0.025851650,0.000911236,1.000000000,1.200000048,0.040778771,-0.047705296,0.000000000,-0.030588044,0.317485988,-0.035956256,1759720786510980.000000000,0.000000000,1.000000000,1.000000000,13.900308609,1.000000000,0.035620503,-0.031241182,0.319461018,0.729145110,-0.409583420,-0.519838810,0.383432299,-0.257199883,-0.102254018,0.000000000,0.486234546,-0.266075104,0.435860842,0.537776947,4.375107765,4.743901730,0.314159274,-4.309865952,-5.000000000
1759720786.610673,-0.419693917,-0.422160715,-0.026566906,0.001128197,1.000000000,1.200000048,0.044127323,-0.049386408,0.000000000,-0.025014531,0.318118125,-0.033209343,1759720786609779.000000000,0.000000000,1.000000000,1.000000000,14.000146866,1.000000000,0.042142618,-0.024622865,0.317299962,0.728868425,-0.455273569,-0.492636353,0.340341479,-0.306094080,-0.103171572,0.000000000,0.442713916,-0.316656500,0.469808310,0.509635806,4.408345699,4.775267124,0.314159274,-4.313765526,-5.000000000
1759720786.713645,-0.381142497,-0.453957915,-0.022108665,0.001205683,1.000000000,1.200000048,0.047525536,-0.050610974,0.000000000,-0.020396382,0.318589896,-0.030354215,1759720786712176.000000000,0.000000000,1.000000000,1.000000000,14.100402832,1.000000000,0.048281029,-0.020687852,0.318108648,0.728684127,-0.494807154,-0.460707128,0.298029870,-0.352325290,-0.103972450,0.000000000,0.395127863,-0.364482999,0.498916358,0.476604789,4.439137459,4.806763172,0.314159274,-4.316542625,-5.000000000
1759720786.815028,-0.327131689,-0.473504394,-0.019404104,0.001265526,1.000000000,1.200000048,0.054140136,-0.051516231,0.000000000,-0.015230183,0.318912566,-0.026844151,1759720786813171.000000000,0.000000000,1.000000000,1.000000000,14.200294495,1.000000000,0.056554854,-0.016955521,0.316933602,0.728541374,-0.534542263,-0.424593180,0.250314176,-0.395100981,-0.104231954,0.000000000,0.335028559,-0.408734769,0.527259529,0.439244688,4.472397804,4.838145256,0.314159274,-4.318234921,-5.000000000
1759720786.912276,-0.280020148,-0.494415492,-0.011290423,0.001024008,1.000000000,1.200000048,0.062718317,-0.052097552,0.000000000,-0.013801283,0.319219649,-0.023251576,1759720786911152.000000000,0.000000000,1.000000000,1.000000000,14.300058365,1.000000000,0.062916793,-0.017056476,0.321112812,0.728455305,-0.565609872,-0.384577394,0.208903804,-0.434147894,-0.104374684,0.000000000,0.277338743,-0.449129075,0.547820687,0.397848040,4.500260353,4.869487286,0.314159274,-4.322117329,-5.000000000
1759720787.013805,-0.218956366,-0.518222094,-0.006176531,0.001277208,1.000000000,1.200000048,0.070797749,-0.052612782,0.000000000,-0.011489679,0.319527805,-0.018468356,1759720787012280.000000000,0.000000000,1.000000000,1.000000000,14.400375366,1.000000000,0.067868240,-0.018013893,0.321480572,0.728481770,-0.592826843,-0.340736926,0.162910298,-0.469342619,-0.103068665,0.000000000,0.214507595,-0.485538304,0.571078956,0.352494776,4.530632973,4.901002407,0.314159274,-4.321616173,-5.000000000
1759720787.110528,-0.143095240,-0.533984125,-0.013358890,0.001123667,1.000000000,1.200000048,0.075867489,-0.053220708,0.000000000,-0.010810596,0.319722086,-0.012681993,1759720787109747.000000000,0.000000000,1.000000000,1.000000000,14.500131607,1.000000000,0.072266757,-0.016123636,0.320116162,0.728754997,-0.615099669,-0.293965966,0.110184193,-0.499968171,-0.101206265,0.000000000,0.142699257,-0.517220616,0.590744436,0.304109871,4.563802242,4.932342052,0.314159274,-4.319618225,-5.000000000
1759720787.210978,-0.072925925,-0.551650047,-0.018851830,0.001106024,1.000000000,1.200000048,0.078805357,-0.053912252,0.000000000,-0.008485720,0.320016444,-0.006954946,1759720787210208.000000000,0.000000000,1.000000000,1.000000000,14.600162506,1.000000000,0.073240221,-0.015403727,0.320493668,0.729002953,-0.628198385,-0.244324133,0.059936397,-0.526013196,-0.099565104,0.000000000,0.075575188,-0.544164360,0.603671134,0.252755076,4.594548702,4.963767529,0.314159274,-4.316487312,-5.000000000
1759720787.309916,0.007891139,-0.560554862,-0.026878899,0.000658274,1.000000000,1.200000048,0.076600291,-0.054596774,0.000000000,-0.007693808,0.320009857,-0.000664012,1759720787309104.000000000,0.000000000,1.000000000,1.000000000,14.700024605,1.000000000,0.072112590,-0.013479434,0.319431096,0.729412377,-0.633595705,-0.192489013,0.005278207,-0.547112525,-0.098581828,0.000000000,0.004971581,-0.565991819,0.613184631,0.199131250,4.627490520,4.995140076,0.314159274,-4.312327385,-5.000000000
1759720787.412126,0.081289545,-0.560316145,-0.034141351,0.001107454,1.000000000,1.200000048,0.076498322,-0.055324346,0.000000000,-0.008619907,0.320096433,0.004905161,1759720787411346.000000000,0.000000000,1.000000000,1.000000000,14.800178528,1.000000000,0.071847416,-0.014850960,0.320225745,0.729904652,-0.632332087,-0.138702884,-0.044554010,-0.563156843,-0.097799830,0.000000000,-0.064693041,-0.582589805,0.620680869,0.143489137,4.657761097,5.026604176,0.314159274,-4.305191994,-5.000000000
1759720787.512526,0.154281974,-0.569298387,-0.045350749,0.001092196,1.000000000,1.200000048,0.073648736,-0.056418817,0.000000000,-0.006690499,0.320000023,0.010927575,1759720787511188.000000000,0.000000000,1.000000000,1.000000000,14.900022507,1.000000000,0.070279405,-0.008785058,0.318974167,0.730237007,-0.622796893,-0.083789058,-0.102752380,-0.573902011,-0.098323077,0.000000000,-0.138535932,-0.593705773,0.616089046,0.086680375,4.691014767,5.057971478,0.314159274,-4.298768997,-5.000000000
1759720787.609320,0.216493428,-0.570966303,-0.046961937,0.000713825,1.000000000,1.200000048,0.070089832,-0.057245456,0.000000000,0.000345541,0.320092827,0.016038159,1759720787608599.000000000,0.000000000,1.000000000,1.000000000,15.000001907,1.000000000,0.068643756,-0.000991444,0.318650812,0.730535805,-0.607106626,-0.028019898,-0.159094170,-0.579309106,-0.099231899,0.000000000,-0.205072626,-0.599299371,0.601172149,0.028986786,4.722104073,5.089380741,0.314159274,-4.292286396,-5.000000000
1759720787.710464,0.277017713,-0.557029963,-0.053977590,0.001053810,1.000000000,1.200000048,0.068383776,-0.057396408,0.000000000,0.008299073,0.319878310,0.020911371,1759720787709639.000000000,0.000000000,1.000000000,1.000000000,15.100117683,1.000000000,0.066242486,0.005664557,0.318724155,0.730737209,-0.585152566,0.028087134,-0.214942157,-0.579305828,-0.101060480,0.000000000,-0.268455029,-0.599296033,0.579977870,-0.029056340,4.753316402,5.120832920,0.314159274,-4.286393166,-5.000000000
1759720787.810378,0.344061613,-0.538483441,-0.058622096,0.001060486,1.000000000,1.200000048,0.064358957,-0.056909028,0.000000000,0.015065054,0.319467574,0.025940299,1759720787809468.000000000,0.000000000,1.000000000,1.000000000,15.200083733,1.000000000,0.062171705,0.011948468,0.317171037,0.730857849,-0.554600060,0.083847992,-0.272165924,-0.573893428,-0.103827767,0.000000000,-0.331518084,-0.593696833,0.554413080,-0.086741343,4.786696434,5.152238369,0.314159274,-4.281055927,-5.000000000
1759720787.911806,0.399759620,-0.507055402,-0.058932226,0.000762939,1.000000000,1.200000048,0.056987189,-0.055931225,0.000000000,0.021996409,0.318261534,0.030410385,1759720787910869.000000000,0.000000000,1.000000000,1.000000000,15.300277710,1.000000000,0.055827148,0.020884721,0.315369844,0.730892539,-0.515398324,0.138950989,-0.328249425,-0.563095689,-0.106456891,0.000000000,-0.385250270,-0.582526505,0.520074725,-0.143745780,4.820070744,5.183715343,0.314159274,-4.276151180,-5.000000000
1759720788.011030,0.447085798,-0.473017156,-0.053284686,0.001136303,1.000000000,1.200000048,0.051114321,-0.054444268,0.000000000,0.028103027,0.317581862,0.033920087,1759720788010173.000000000,0.000000000,1.000000000,1.000000000,15.400098801,1.000000000,0.051063970,0.024531137,0.315174252,0.730782866,-0.474639326,0.192554146,-0.375187039,-0.547089636,-0.109405771,0.000000000,-0.432268202,-0.565968096,0.485513061,-0.199198633,4.850710869,5.215074539,0.314159274,-4.274450302,-5.000000000
1759720788.110332,0.484755337,-0.429386348,-0.052056272,0.001097918,1.000000000,1.200000048,0.044950340,-0.052450538,0.000000000,0.031828571,0.317234397,0.037125401,1759720788109479.000000000,0.000000000,1.000000000,1.000000000,15.500032425,1.000000000,0.044506576,0.029509649,0.313987285,0.730469167,-0.424178541,0.244423375,-0.421127170,-0.525967062,-0.112758674,0.000000000,-0.474945575,-0.544116676,0.444147527,-0.252857715,4.883927822,5.246469975,0.314159274,-4.275746346,-5.000000000
1759720788.213409,0.513477325,-0.387044847,-0.049437393,0.001143456,1.000000000,1.200000048,0.037268110,-0.050188955,0.000000000,0.037373122,0.316478163,0.039578605,1759720788211800.000000000,0.000000000,1.000000000,1.000000000,15.600302696,1.000000000,0.038376529,0.031730913,0.314291537,0.730035484,-0.373533458,0.294175953,-0.459463596,-0.499844640,-0.116087012,0.000000000,-0.507985592,-0.517092824,0.402009666,-0.304327101,4.914750576,5.277970791,0.314159274,-4.279345512,-5.000000000
