__time,/plotjuggler/logging/ax,/plotjuggler/logging/ay,/plotjuggler/logging/az,/plotjuggler/logging/comp_time,/plotjuggler/logging/controller,/plotjuggler/logging/lookahead_time,/plotjuggler/logging/p,/plotjuggler/logging/pitch,/plotjuggler/logging/platform,/plotjuggler/logging/q,/plotjuggler/logging/r,/plotjuggler/logging/roll,/plotjuggler/logging/timestamp,/plotjuggler/logging/timestamp_sample,/plotjuggler/logging/traj_double,/plotjuggler/logging/traj_spin,/plotjuggler/logging/traj_time,/plotjuggler/logging/trajectory,/plotjuggler/logging/u_p,/plotjuggler/logging/u_q,/plotjuggler/logging/u_r,/plotjuggler/logging/u_throttle,/plotjuggler/logging/vx,/plotjuggler/logging/vx_ref,/plotjuggler/logging/vy,/plotjuggler/logging/vy_ref,/plotjuggler/logging/vz,/plotjuggler/logging/vz_ref,/plotjuggler/logging/x,/plotjuggler/logging/x_ref,/plotjuggler/logging/y,/plotjuggler/logging/y_ref,/plotjuggler/logging/yaw,/plotjuggler/logging/yaw_ref,/plotjuggler/logging/yawd_ref,/plotjuggler/logging/z,/plotjuggler/logging/z_ref
1759716078.161623,-1.003778219,-0.165813312,-0.038353723,0.000272989,0.000000000,1.200000048,-0.051067695,0.117181838,0.000000000,-0.021202270,0.407593846,0.001424467,1759716078160446.000000000,0.000000000,1.000000000,1.000000000,1.110198736,1.000000000,-0.073351219,-0.030310145,0.434485435,0.730086684,-0.542381287,-0.457350224,-0.122325636,-0.356672019,-0.378625721,0.000000000,0.884949625,-0.368979752,0.941848636,0.473132044,0.227679402,0.725770354,0.314159274,-4.028768539,-5.000000000
1759716078.261624,-0.945907712,-0.200183839,-0.000377186,0.000318766,0.000000000,1.200000048,-0.064274371,0.113684699,0.000000000,-0.055253677,0.416257977,0.000522616,1759716078260853.000000000,0.000000000,1.000000000,1.000000000,1.210226059,1.000000000,-0.081426121,-0.060418099,0.427240670,0.728150368,-0.629074514,-0.420780778,-0.136903092,-0.399158716,-0.378380209,0.000000000,0.831982493,-0.412932545,0.936637580,0.435300708,0.264546335,0.757194877,0.314159274,-4.053811550,-5.000000000
1759716078.361616,-0.852382481,-0.240504235,0.031707805,0.000333309,0.000000000,1.200000048,-0.075447172,0.106939919,0.000000000,-0.085222475,0.420812458,-0.001808236,1759716078360651.000000000,0.000000000,1.000000000,1.000000000,1.310071230,1.000000000,-0.086108893,-0.086730748,0.416664988,0.726394176,-0.718135893,-0.380357593,-0.159332126,-0.437849581,-0.375283867,0.000000000,0.762913406,-0.452958524,0.924943805,0.393482625,0.307305336,0.788562119,0.314159274,-4.081278801,-5.000000000
1759716078.459407,-0.715627134,-0.281442046,0.058921982,0.000248909,0.000000000,1.200000048,-0.084403105,0.096736833,0.000000000,-0.114421621,0.420842767,-0.005745342,1759716078458885.000000000,0.000000000,1.000000000,1.000000000,1.410077333,1.000000000,-0.086709917,-0.109790802,0.402325898,0.724846900,-0.803602576,-0.336320549,-0.189707771,-0.472517341,-0.368815452,0.000000000,0.677687168,-0.488822550,0.905170262,0.347926021,0.354972541,0.819979966,0.314159274,-4.110613823,-5.000000000
1759716078.564077,-0.557664990,-0.313221097,0.088066787,0.000344753,0.000000000,1.200000048,-0.086100146,0.084182881,0.000000000,-0.134438202,0.417001873,-0.010782204,1759716078562625.000000000,0.000000000,1.000000000,1.000000000,1.510720253,1.000000000,-0.084724940,-0.126002744,0.388638139,0.723637283,-0.873770118,-0.288833469,-0.225053355,-0.502950668,-0.359493315,0.000000000,0.583894014,-0.520306051,0.879077494,0.298800290,0.402444303,0.851597905,0.314159274,-4.139663219,-5.000000000
1759716078.658928,-0.398023337,-0.331441253,0.103135586,0.000254154,0.000000000,1.200000048,-0.085331224,0.071250916,0.000000000,-0.147625357,0.410333186,-0.016022790,1759716078658441.000000000,0.000000000,1.000000000,1.000000000,1.610065699,1.000000000,-0.081321754,-0.135302410,0.375117630,0.722646296,-0.922399998,-0.239277691,-0.260470450,-0.528327882,-0.348878920,0.000000000,0.492163122,-0.546558976,0.851469636,0.247534484,0.445897162,0.882808149,0.314159274,-4.167568684,-5.000000000
1759716078.761127,-0.220420241,-0.332150906,0.115346156,0.000277042,0.000000000,1.200000048,-0.083518632,0.056354273,0.000000000,-0.155413866,0.400484622,-0.022058073,1759716078760004.000000000,0.000000000,1.000000000,1.000000000,1.710144281,1.000000000,-0.079228804,-0.139190599,0.363349468,0.721941829,-0.959339917,-0.187127963,-0.298269302,-0.548969269,-0.335898250,0.000000000,0.384985417,-0.567912638,0.818589985,0.193585202,0.490650326,0.914248765,0.314159274,-4.194815159,-5.000000000
1759716078.858868,-0.073014490,-0.320604056,0.129988402,0.000262022,0.000000000,1.200000048,-0.082094401,0.043556500,0.000000000,-0.156034723,0.392126292,-0.027512297,1759716078858402.000000000,0.000000000,1.000000000,1.000000000,1.810040474,1.000000000,-0.078874677,-0.135655358,0.355275631,0.721481323,-0.975539088,-0.133327842,-0.326906353,-0.564453602,-0.323613495,0.000000000,0.293776751,-0.583931267,0.792139113,0.137928605,0.525958359,0.945632100,0.314159274,-4.216854095,-5.000000000
1759716078.958800,0.111013018,-0.304562509,0.135215923,0.000254631,0.000000000,1.200000048,-0.081377305,0.027879467,0.000000000,-0.146189958,0.381328791,-0.035103090,1759716078958306.000000000,0.000000000,1.000000000,1.000000000,1.910028696,1.000000000,-0.076089956,-0.126761630,0.348932385,0.721158743,-0.975566983,-0.078234330,-0.362301975,-0.574685574,-0.307073087,0.000000000,0.180908129,-0.594516337,0.754023015,0.080933973,0.568393588,0.977044344,0.314159274,-4.245333195,-5.000000000
1759716079.058730,0.241625115,-0.288421005,0.141627148,0.000226021,0.000000000,1.200000048,-0.078651354,0.016768910,0.000000000,-0.135790959,0.373915851,-0.041383725,1759716079058232.000000000,0.000000000,1.000000000,1.000000000,2.010044098,1.000000000,-0.069328517,-0.115375385,0.344676793,0.720893919,-0.960329175,-0.022395318,-0.389897436,-0.579553783,-0.293308049,0.000000000,0.095472746,-0.599552512,0.719409525,0.023168117,0.601339400,1.008465052,0.314159274,-4.266162872,-5.000000000
1759716079.158766,0.389396816,-0.264328837,0.146107733,0.000151873,0.000000000,1.200000048,-0.067405514,0.004247035,0.000000000,-0.120402128,0.365368843,-0.049215868,1759716079158270.000000000,0.000000000,1.000000000,1.000000000,2.110030174,1.000000000,-0.058622316,-0.102770001,0.339350909,0.721157312,-0.923930764,0.033636447,-0.423469961,-0.579010129,-0.273294777,0.000000000,-0.009096161,-0.598990142,0.670676589,-0.034797143,0.643681228,1.039876699,0.314159274,-4.283298492,-5.000000000
1759716079.258958,0.496040344,-0.246537015,0.141502351,0.000248909,0.000000000,1.200000048,-0.059777457,-0.004040320,0.000000000,-0.105494693,0.359218121,-0.054884609,1759716079258452.000000000,0.000000000,1.000000000,1.000000000,2.210062265,1.000000000,-0.048115559,-0.089111231,0.336035728,0.721460938,-0.882956088,0.089379735,-0.446977139,-0.573057950,-0.257972121,0.000000000,-0.085926093,-0.592832506,0.630338907,-0.092463970,0.676203132,1.071302652,0.314159274,-4.296999931,-5.000000000
1759716079.358658,0.600271940,-0.217194691,0.140593380,0.000191927,0.000000000,1.200000048,-0.043809120,-0.012661217,0.000000000,-0.089462437,0.352692425,-0.060937028,1759716079358166.000000000,0.000000000,1.000000000,1.000000000,2.310019493,1.000000000,-0.039123930,-0.075710788,0.333275735,0.721650779,-0.821019173,0.144247323,-0.471602857,-0.561762273,-0.239522666,0.000000000,-0.180912495,-0.581147075,0.581185102,-0.149224877,0.715034544,1.102705121,0.314159274,-4.316815376,-5.000000000
1759716079.459241,0.664369047,-0.195327982,0.136674374,0.000208378,0.000000000,1.200000048,-0.035977401,-0.017801700,0.000000000,-0.073871300,0.348171651,-0.064957224,1759716079458723.000000000,0.000000000,1.000000000,1.000000000,2.410150766,1.000000000,-0.032972939,-0.064813003,0.333039284,0.721649647,-0.765852690,0.197860986,-0.489857048,-0.545192778,-0.226204842,0.000000000,-0.252194405,-0.564005852,0.538821816,-0.204688609,0.744695008,1.134162307,0.314159274,-4.335909367,-5.000000000
1759716079.558719,0.727951705,-0.161998242,0.149817199,0.000180006,0.000000000,1.200000048,-0.025191272,-0.022844996,0.000000000,-0.063135721,0.343775928,-0.069249496,1759716079558220.000000000,0.000000000,1.000000000,1.000000000,2.510037422,1.000000000,-0.024305703,-0.057583660,0.330726504,0.721343875,-0.688114643,0.249498636,-0.511389434,-0.523578644,-0.209369868,0.000000000,-0.335765064,-0.541645825,0.481073767,-0.258108109,0.782669842,1.165542603,0.314159274,-4.362134933,-5.000000000
1759716079.660005,0.765488923,-0.140530244,0.160488293,0.000411510,0.000000000,1.200000048,-0.016772624,-0.025790168,0.000000000,-0.052891612,0.340927839,-0.071887881,1759716079659423.000000000,0.000000000,1.000000000,1.000000000,2.610172510,1.000000000,-0.018201457,-0.048720513,0.330343097,0.721204281,-0.621900618,0.298931420,-0.525010645,-0.497015268,-0.195078015,0.000000000,-0.393321067,-0.514165819,0.437269986,-0.309246689,0.813051760,1.197000980,0.314159274,-4.380065441,-5.000000000
1759716079.760760,0.788162947,-0.113497265,0.162876204,0.000214577,0.000000000,1.200000048,-0.009790434,-0.027955234,0.000000000,-0.042149670,0.337996960,-0.074057616,1759716079759782.000000000,0.000000000,1.000000000,1.000000000,2.710104942,1.000000000,-0.010706942,-0.040732309,0.329026490,0.721381843,-0.545690835,0.345474362,-0.536892056,-0.465866536,-0.177831486,0.000000000,-0.447944075,-0.481942236,0.387772441,-0.357395679,0.845946372,1.228395700,0.314159274,-4.393307686,-5.000000000
1759716079.858875,0.809854865,-0.085720129,0.146770835,0.000298738,0.000000000,1.200000048,-0.001921113,-0.029383015,0.000000000,-0.034592588,0.335026056,-0.075769514,1759716079858378.000000000,0.000000000,1.000000000,1.000000000,2.810044527,1.000000000,-0.000145832,-0.032828122,0.326699406,0.721709907,-0.458199352,0.388799012,-0.546807885,-0.430371314,-0.159322843,0.000000000,-0.493607104,-0.445222199,0.333005309,-0.402215362,0.881882310,1.259792686,0.314159274,-4.405808926,-5.000000000
1759716079.960888,0.816182256,-0.060046714,0.145994112,0.000291586,0.000000000,1.200000048,0.008619718,-0.029909102,0.000000000,-0.025340077,0.332798898,-0.076432109,1759716079959985.000000000,0.000000000,1.000000000,1.000000000,2.910144806,1.000000000,0.010880189,-0.025366215,0.324617684,0.721956313,-0.374627769,0.428558677,-0.553561628,-0.390796125,-0.143784031,0.000000000,-0.525095522,-0.404281378,0.280731410,-0.443347007,0.915969193,1.291240096,0.314159274,-4.418461323,-5.000000000
1759716080.058622,0.800733149,-0.031713918,0.147579223,0.000133276,0.000000000,1.200000048,0.021752352,-0.029513810,0.000000000,-0.015898788,0.330373436,-0.075942256,1759716080058118.000000000,0.000000000,1.000000000,1.000000000,3.010025978,1.000000000,0.021006793,-0.020549417,0.321982175,0.722019494,-0.284185141,0.464235336,-0.558030009,-0.347663194,-0.127489194,0.000000000,-0.550076127,-0.359660059,0.222973794,-0.480254769,0.953169942,1.322618723,0.314159274,-4.431941986,-5.000000000
1759716080.159495,0.777960300,-0.001508553,0.136427566,0.000272274,0.000000000,1.200000048,0.031217262,-0.028624987,0.000000000,-0.012543768,0.327511400,-0.074417800,1759716080158795.000000000,0.000000000,1.000000000,1.000000000,3.110076904,1.000000000,0.030749239,-0.016678227,0.318817139,0.722549319,-0.202089548,0.495637298,-0.558965027,-0.301210612,-0.111457273,0.000000000,-0.564048946,-0.311604530,0.171457857,-0.512740314,0.986874402,1.354050636,0.314159274,-4.435523510,-5.000000000
1759716080.259260,0.738756657,0.028203836,0.117340118,0.000185728,0.000000000,1.200000048,0.042304318,-0.027405828,0.000000000,-0.009916653,0.325002909,-0.071671769,1759716080258768.000000000,0.000000000,1.000000000,1.000000000,3.210069656,1.000000000,0.040519614,-0.013928329,0.315441191,0.723156810,-0.114313059,0.522392750,-0.556900144,-0.251972198,-0.095667981,0.000000000,-0.567137837,-0.260667056,0.114774950,-0.540418983,1.023275614,1.385464191,0.314159274,-4.439125061,-5.000000000
1759716080.358708,0.694823444,0.058603738,0.106115818,0.000190020,0.000000000,1.200000048,0.053604916,-0.026118027,0.000000000,-0.007702869,0.322018176,-0.067910768,1759716080358229.000000000,0.000000000,1.000000000,1.000000000,3.310038328,1.000000000,0.047554579,-0.014084402,0.312858820,0.723797798,-0.037838247,0.544266760,-0.553310752,-0.200394213,-0.082473405,0.000000000,-0.563036025,-0.207309246,0.059251487,-0.563047826,1.056644440,1.416870356,0.314159274,-4.438952923,-5.000000000
1759716080.460820,0.638953924,0.088131011,0.089100555,0.000279665,0.000000000,1.200000048,0.060879536,-0.024721237,0.000000000,-0.008922273,0.319273800,-0.062951386,1759716080459829.000000000,0.000000000,1.000000000,1.000000000,3.410149813,1.000000000,0.052375868,-0.018438557,0.310278744,0.724569142,0.037752446,0.561082602,-0.548510432,-0.146868929,-0.069739319,0.000000000,-0.553538144,-0.151936948,-0.004178523,-0.580443919,1.091144562,1.448321223,0.314159274,-4.435340405,-5.000000000
1759716080.560771,0.581021011,0.121737517,0.066191882,0.000382662,0.000000000,1.200000048,0.063474230,-0.023971288,0.000000000,-0.014655625,0.316832602,-0.057916392,1759716080560179.000000000,0.000000000,1.000000000,1.000000000,3.510159969,1.000000000,0.054241102,-0.026349917,0.310864478,0.725468814,0.101505131,0.572639048,-0.542218387,-0.092025384,-0.059590839,0.000000000,-0.538876951,-0.095200911,-0.063948445,-0.592399180,1.120849133,1.479740381,0.314159274,-4.429664612,-5.000000000
1759716080.658883,0.518808365,0.162884861,0.039814036,0.000289917,0.000000000,1.200000048,0.068034150,-0.024153985,0.000000000,-0.020336440,0.314499378,-0.052061386,1759716080658408.000000000,0.000000000,1.000000000,1.000000000,3.610041618,1.000000000,0.057611808,-0.027480405,0.308915257,0.726225615,0.167788208,0.578843355,-0.525944054,-0.036394358,-0.051839739,0.000000000,-0.508974075,-0.037650220,-0.121440463,-0.598817527,1.155657530,1.511119127,0.314159274,-4.424314022,-5.000000000
1759716080.760536,0.459376812,0.205927163,0.022116115,0.000277042,0.000000000,1.200000048,0.068149760,-0.024893655,0.000000000,-0.022217557,0.312784731,-0.046183515,1759716080759845.000000000,0.000000000,1.000000000,1.000000000,3.710136414,1.000000000,0.054274108,-0.026624087,0.308072835,0.726769984,0.219979808,0.579651833,-0.505640447,0.019695101,-0.046966825,0.000000000,-0.482354611,0.020374723,-0.167924657,-0.599653959,1.187975407,1.542564869,0.314159274,-4.419891834,-5.000000000
1759716080.858880,0.393958390,0.251181692,0.011262483,0.000257730,0.000000000,1.200000048,0.063207269,-0.025798036,0.000000000,-0.019823503,0.311031967,-0.040356033,1759716080858396.000000000,0.000000000,1.000000000,1.000000000,3.810057878,1.000000000,0.051137332,-0.026568372,0.306355536,0.727234602,0.270046085,0.575050712,-0.481376290,0.075503975,-0.043080505,0.000000000,-0.447281361,0.078109398,-0.219720006,-0.594894052,1.221551418,1.573956132,0.314159274,-4.414529324,-5.000000000
1759716080.958862,0.340258151,0.284353942,-0.008371658,0.000221491,0.000000000,1.200000048,0.061415687,-0.026782699,0.000000000,-0.022489497,0.309816241,-0.035206761,1759716080958348.000000000,0.000000000,1.000000000,1.000000000,3.910056591,1.000000000,0.048641507,-0.029029358,0.307289302,0.727650106,0.311193347,0.565079153,-0.457193553,0.130651191,-0.040853828,0.000000000,-0.408149123,0.135159582,-0.267218918,-0.584578395,1.250970840,1.605371594,0.314159274,-4.410851955,-5.000000000
1759716081.058688,0.289922893,0.320568472,-0.011872499,0.000199080,0.000000000,1.200000048,0.057761449,-0.028132340,0.000000000,-0.025745176,0.308632135,-0.030205900,1759716081058186.000000000,0.000000000,1.000000000,1.000000000,4.010018349,1.000000000,0.048893020,-0.031722564,0.308576018,0.727881491,0.350588650,0.549838364,-0.428735912,0.184558809,-0.039859414,0.000000000,-0.359489501,0.190927401,-0.315881103,-0.568811655,1.281082630,1.636775494,0.314159274,-4.407131672,-5.000000000
1759716081.161130,0.237790838,0.360026270,-0.023880040,0.000276566,0.000000000,1.200000048,0.057704557,-0.029888513,0.000000000,-0.027817050,0.308931559,-0.025633421,1759716081160190.000000000,0.000000000,1.000000000,1.000000000,4.110091209,1.000000000,0.049679454,-0.033008549,0.311850339,0.728526890,0.383247316,0.529442310,-0.398755163,0.236801565,-0.037933845,0.000000000,-0.308222502,0.244972900,-0.356803447,-0.547711849,1.308293223,1.668214321,0.314159274,-4.395316601,-5.000000000
1759716081.260123,0.182814553,0.400901824,-0.033439133,0.000272751,0.000000000,1.200000048,0.058094155,-0.032117780,0.000000000,-0.028002840,0.309751958,-0.020735709,1759716081259560.000000000,0.000000000,1.000000000,1.000000000,4.210121155,1.000000000,0.051912740,-0.033261403,0.314304292,0.729250073,0.415201247,0.504107714,-0.363494456,0.286809236,-0.036995228,0.000000000,-0.247840062,0.296706200,-0.399374396,-0.521503031,1.337359667,1.699639559,0.314159274,-4.382767200,-5.000000000
1759716081.359183,0.133606389,0.432223111,-0.047435980,0.000196457,0.000000000,1.200000048,0.058648579,-0.034434918,0.000000000,-0.030312637,0.310801297,-0.016382759,1759716081358557.000000000,0.000000000,1.000000000,1.000000000,4.310062408,1.000000000,0.053650536,-0.031902835,0.317368656,0.729880810,0.440394640,0.474092185,-0.324737668,0.334096909,-0.037499286,0.000000000,-0.187599167,0.345625639,-0.431656450,-0.490451753,1.365427136,1.731037140,0.314159274,-4.371366978,-5.000000000
1759716081.458918,0.076844119,0.467221797,-0.051768493,0.000230551,0.000000000,1.200000048,0.061589301,-0.037097938,0.000000000,-0.026089275,0.312435746,-0.011494324,1759716081458415.000000000,0.000000000,1.000000000,1.000000000,4.410075188,1.000000000,0.054818317,-0.027192801,0.317480445,0.730367601,0.461188495,0.439629287,-0.278337955,0.378299147,-0.039621070,0.000000000,-0.121812128,0.391353160,-0.462277949,-0.454799622,1.397567868,1.762457132,0.314159274,-4.361708641,-5.000000000
1759716081.560339,0.023769723,0.492194921,-0.060793009,0.000133753,0.000000000,1.200000048,0.059877433,-0.039189164,0.000000000,-0.022900399,0.313795805,-0.006962166,1759716081558941.000000000,0.000000000,1.000000000,1.000000000,4.510022163,1.000000000,0.052868977,-0.025150495,0.318599463,0.730615556,0.474506170,0.401087373,-0.233408839,0.418942809,-0.042817414,0.000000000,-0.060655959,0.433399320,-0.487723410,-0.414927751,1.427377462,1.793856263,0.314159274,-4.356288433,-5.000000000
1759716081.658632,-0.033084061,0.515266299,-0.067442648,0.000176668,0.000000000,1.200000048,0.057980120,-0.041256368,0.000000000,-0.019015990,0.314879507,-0.002437009,1759716081658096.000000000,0.000000000,1.000000000,1.000000000,4.610031128,1.000000000,0.054457001,-0.022559904,0.320196033,0.730570018,0.485668898,0.358777076,-0.182632506,0.455700725,-0.047671165,0.000000000,0.012025159,0.471425653,-0.508656919,-0.371157438,1.458412647,1.825275064,0.314159274,-4.354951382,-5.000000000
1759716081.759156,-0.083196476,0.531567395,-0.060454939,0.000266075,0.000000000,1.200000048,0.058110930,-0.043085556,0.000000000,-0.017752148,0.316085041,0.001629046,1759716081758644.000000000,0.000000000,1.000000000,1.000000000,4.710144520,1.000000000,0.055903163,-0.019576438,0.322102845,0.730496049,0.490977019,0.313067198,-0.134019047,0.488234669,-0.051340599,0.000000000,0.079417497,0.505082250,-0.523067892,-0.323870242,1.486459374,1.856726646,0.314159274,-4.351799488,-5.000000000
1759716081.860292,-0.136540875,0.547753155,-0.062189993,0.000309944,0.000000000,1.200000048,0.058536042,-0.044723354,0.000000000,-0.014805825,0.317985445,0.005638378,1759716081859690.000000000,0.000000000,1.000000000,1.000000000,4.810404778,1.000000000,0.057704452,-0.018718850,0.325579643,0.730477333,0.493378192,0.264354497,-0.085653797,0.516237199,-0.054914784,0.000000000,0.151001409,0.534051061,-0.537142396,-0.273476601,1.513673782,1.888224244,0.314159274,-4.348996639,-5.000000000
1759716081.958895,-0.190313518,0.554673731,-0.060727816,0.000267744,0.000000000,1.200000048,0.062573254,-0.046210650,0.000000000,-0.012722376,0.320470601,0.009767900,1759716081958395.000000000,0.000000000,1.000000000,1.000000000,4.910053253,1.000000000,0.061544854,-0.019784695,0.329019576,0.730512202,0.491725713,0.213479578,-0.038694918,0.539268613,-0.058254167,0.000000000,0.223209441,0.557877183,-0.550764680,-0.220846146,1.539984465,1.919529796,0.314159274,-4.345901012,-5.000000000
1759716082.058805,-0.251943976,0.563266635,-0.062980682,0.000200033,0.000000000,1.200000048,0.064761735,-0.047973048,0.000000000,-0.017125132,0.323524475,0.014453647,1759716082058272.000000000,0.000000000,1.000000000,1.000000000,5.010042191,1.000000000,0.062968336,-0.022805804,0.334042251,0.730629861,0.483644754,0.160441756,0.010753732,0.557353199,-0.061888553,0.000000000,0.297401041,0.576585889,-0.563206911,-0.165978134,1.566693544,1.950942397,0.314159274,-4.342900276,-5.000000000
1759716082.158723,-0.306705683,0.571480393,-0.054774802,0.000228167,0.000000000,1.200000048,0.065501355,-0.050293308,0.000000000,-0.019851154,0.326972693,0.018913765,1759716082158179.000000000,0.000000000,1.000000000,1.000000000,5.110050201,1.000000000,0.063330211,-0.020489624,0.338097274,0.730380058,0.470331669,0.105896123,0.061192557,0.570236921,-0.066806659,0.000000000,0.366271675,0.589914203,-0.565038860,-0.109550297,1.592848063,1.982360721,0.314159274,-4.346346855,-5.000000000
1759716082.258670,-0.370115429,0.577842891,-0.042602416,0.000180721,0.000000000,1.200000048,0.065760083,-0.052680112,0.000000000,-0.012569361,0.330601484,0.023749046,1759716082258159.000000000,0.000000000,1.000000000,1.000000000,5.210035324,1.000000000,0.062249299,-0.016587583,0.340918303,0.729908764,0.450079530,0.050374400,0.115551457,0.577794552,-0.071051553,0.000000000,0.438338012,0.597732604,-0.563141763,-0.052112676,1.622036695,2.013772011,0.314159274,-4.353646278,-5.000000000
1759716082.358670,-0.424023449,0.576774418,-0.025115905,0.000175714,0.000000000,1.200000048,0.060208961,-0.054591458,0.000000000,-0.010503042,0.333776981,0.027873434,1759716082358179.000000000,0.000000000,1.000000000,1.000000000,5.310041904,1.000000000,0.058931030,-0.011372416,0.342971683,0.729448080,0.423150718,-0.005629807,0.167858511,0.579959035,-0.073336780,0.000000000,0.498499870,0.599971712,-0.554059088,0.005824076,1.650243282,2.045190096,0.314159274,-4.358431339,-5.000000000
1759716082.459131,-0.474854916,0.571390331,-0.021050682,0.000203371,0.000000000,1.200000048,0.055407476,-0.056521364,0.000000000,-0.004399792,0.336059153,0.031860560,1759716082458664.000000000,0.000000000,1.000000000,1.000000000,5.410184860,1.000000000,0.052919466,-0.001976751,0.342958272,0.729221404,0.385795355,-0.061657336,0.226997703,0.576699674,-0.073791161,0.000000000,0.555537820,0.596599936,-0.534380853,0.063784957,1.682836771,2.076650858,0.314159274,-4.358303547,-5.000000000
1759716082.560745,-0.517649651,0.565052986,-0.023208557,0.000216722,0.000000000,1.200000048,0.049553122,-0.057374761,0.000000000,0.007826577,0.337797910,0.034569170,1759716082559780.000000000,0.000000000,1.000000000,1.000000000,5.510128975,1.000000000,0.046912525,0.009500264,0.342855692,0.729461074,0.349300116,-0.116998486,0.278390199,0.568062961,-0.073048845,0.000000000,0.597746611,0.587665141,-0.509430647,0.121035770,1.711225390,2.108049154,0.314159274,-4.352895737,-5.000000000
1759716082.660563,-0.560171425,0.534129441,-0.031899657,0.000265837,0.000000000,1.200000048,0.040506665,-0.057302929,0.000000000,0.020714192,0.339560568,0.037317447,1759716082659652.000000000,0.000000000,1.000000000,1.000000000,5.610105515,1.000000000,0.041654773,0.025013957,0.340351880,0.730109334,0.296441793,-0.171265587,0.345402390,0.554122984,-0.071121439,0.000000000,0.646347880,0.573244154,-0.463787764,0.177175462,1.748755574,2.139457703,0.314159274,-4.336695671,-5.000000000
1759716082.758826,-0.583196819,0.500766754,-0.048235986,0.000236988,0.000000000,1.200000048,0.035347085,-0.056060012,0.000000000,0.034694836,0.339929819,0.038774718,1759716082758293.000000000,0.000000000,1.000000000,1.000000000,5.710037231,1.000000000,0.038777176,0.036629111,0.338764727,0.730619371,0.252721071,-0.223911196,0.394235551,0.535021424,-0.071358375,0.000000000,0.682299793,0.553483486,-0.424823880,0.231637731,1.778141975,2.170852184,0.314159274,-4.328157425,-5.000000000
1759716082.858721,-0.606946528,0.441902399,-0.052656043,0.000181675,0.000000000,1.200000048,0.031731684,-0.053084698,0.000000000,0.046585087,0.339764655,0.040289249,1759716082858215.000000000,0.000000000,1.000000000,1.000000000,5.810027599,1.000000000,0.036825005,0.047345906,0.335978001,0.730866253,0.194191113,-0.274498284,0.451831937,0.510915697,-0.073670708,0.000000000,0.720152676,0.528545916,-0.368399620,0.283970416,1.814873576,2.202265024,0.314159274,-4.320324898,-5.000000000
1759716082.959482,-0.621033847,0.389683962,-0.059602778,0.000247002,0.000000000,1.200000048,0.029971527,-0.049835067,0.000000000,0.055814173,0.338532656,0.041398197,1759716082958968.000000000,0.000000000,1.000000000,1.000000000,5.910125256,1.000000000,0.035715528,0.054799415,0.335591882,0.730993450,0.146683887,-0.322572798,0.492072791,0.482007205,-0.076213636,0.000000000,0.744864702,0.498639882,-0.320054233,0.333703846,1.842943907,2.233711720,0.314159274,-4.314923286,-5.000000000
1759716083.060659,-0.623101115,0.313743085,-0.064253800,0.000258684,0.000000000,1.200000048,0.027118320,-0.044708405,0.000000000,0.065378666,0.337411880,0.042674322,1759716083059785.000000000,0.000000000,1.000000000,1.000000000,6.010144234,1.000000000,0.034959905,0.059046935,0.334470719,0.731114268,0.084996611,-0.367595643,0.534637451,0.448617429,-0.080074117,0.000000000,0.772279680,0.464097917,-0.257229149,0.380280316,1.878599524,2.265133619,0.314159274,-4.308715820,-5.000000000
1759716083.158731,-0.623965621,0.252232581,-0.069417052,0.000216484,0.000000000,1.200000048,0.027570697,-0.040153787,0.000000000,0.066424295,0.336963832,0.043682959,1759716083158247.000000000,0.000000000,1.000000000,1.000000000,6.110027313,1.000000000,0.035605218,0.058495883,0.335147142,0.730835259,0.038132861,-0.409130931,0.560950220,0.411091268,-0.085214496,0.000000000,0.790965855,0.425276846,-0.206968963,0.423248887,1.905811787,2.296512842,0.314159274,-4.310656071,-5.000000000
1759716083.258763,-0.619076729,0.165524736,-0.049878839,0.000252724,0.000000000,1.200000048,0.027197350,-0.034469415,0.000000000,0.065710977,0.336628765,0.045159955,1759716083258281.000000000,0.000000000,1.000000000,1.000000000,6.210038185,1.000000000,0.033352867,0.057770073,0.334363163,0.730376899,-0.024369597,-0.446900785,0.584757268,0.369680703,-0.091326438,0.000000000,0.803494215,0.382437319,-0.142555177,0.462322056,1.941145182,2.327932119,0.314159274,-4.312562466,-5.000000000
1759716083.359522,-0.616656363,0.103057936,-0.045387071,0.000902176,0.000000000,1.200000048,0.025180005,-0.030038081,0.000000000,0.064651974,0.336296678,0.046492573,1759716083359020.000000000,0.000000000,1.000000000,1.000000000,6.310024738,1.000000000,0.028918134,0.056293983,0.335097760,0.730068505,-0.075537801,-0.480489612,0.596861184,0.324829012,-0.094327070,0.000000000,0.802867115,0.336037904,-0.088229030,0.497069925,1.969961405,2.359343767,0.314159274,-4.312019825,-5.000000000
1759716083.460984,-0.605826020,0.031155307,-0.043047588,0.000216007,0.000000000,1.200000048,0.019786887,-0.025475811,0.000000000,0.062554196,0.336100191,0.047697224,1759716083460041.000000000,0.000000000,1.000000000,1.000000000,6.410182953,1.000000000,0.022817345,0.057791375,0.333914697,0.729941010,-0.132020012,-0.509639382,0.604111373,0.276860714,-0.096498527,0.000000000,0.794656336,0.286414385,-0.025559828,0.527225554,2.002194881,2.390809536,0.314159274,-4.310944080,-5.000000000
1759716083.559315,-0.590004325,-0.036504656,-0.041785646,0.000182867,0.000000000,1.200000048,0.016115868,-0.020555729,0.000000000,0.064810351,0.335219264,0.048682950,1759716083558316.000000000,0.000000000,1.000000000,1.000000000,6.510136604,1.000000000,0.019980034,0.060610302,0.331566393,0.729883969,-0.190436423,-0.533970952,0.606736243,0.226404846,-0.098494485,0.000000000,0.783901393,0.234217435,0.046528801,0.552396774,2.036945343,2.422210932,0.314159274,-4.309961796,-5.000000000
1759716083.658769,-0.569506943,-0.101427458,-0.033931803,0.000237703,0.000000000,1.200000048,0.013697899,-0.015835317,0.000000000,0.065204203,0.334219307,0.049507100,1759716083658271.000000000,0.000000000,1.000000000,1.000000000,6.610053539,1.000000000,0.016392337,0.059541605,0.330468118,0.729757428,-0.242415279,-0.553315461,0.600125194,0.173856705,-0.100245148,0.000000000,0.767587304,0.179856002,0.106586687,0.572408795,2.068838835,2.453600645,0.314159274,-4.310618877,-5.000000000
1759716083.758876,-0.543121696,-0.163963482,-0.026821157,0.000261307,0.000000000,1.200000048,0.007185364,-0.010819412,0.000000000,0.062947907,0.333253056,0.050120734,1759716083758340.000000000,0.000000000,1.000000000,1.000000000,6.710063934,1.000000000,0.013919892,0.056261905,0.330006182,0.729254484,-0.294281065,-0.567513168,0.585869372,0.119636729,-0.103613541,0.000000000,0.747445524,0.123765051,0.169162273,0.587096453,2.102649689,2.485019922,0.314159274,-4.321418762,-5.000000000
1759716083.859686,-0.512673676,-0.214295447,-0.012582167,0.000211477,0.000000000,1.200000048,0.005344633,-0.006635197,0.000000000,0.056331757,0.332367241,0.050211571,1759716083859162.000000000,0.000000000,1.000000000,1.000000000,6.810208797,1.000000000,0.013402139,0.050880700,0.330302447,0.728553116,-0.337584823,-0.576419413,0.565843940,0.064224586,-0.105201624,0.000000000,0.727049232,0.066440791,0.221097454,0.596310019,2.133287430,2.516481400,0.314159274,-4.330039978,-5.000000000
1759716083.959160,-0.483272463,-0.267154515,0.000692904,0.000242949,0.000000000,1.200000048,0.005742774,-0.002762001,0.000000000,0.049021222,0.331407785,0.050477926,1759716083958371.000000000,0.000000000,1.000000000,1.000000000,6.910054207,1.000000000,0.012037203,0.043811552,0.330299586,0.728267729,-0.380091637,-0.579925835,0.538429081,0.008378922,-0.104731686,0.000000000,0.702614486,0.008668054,0.272781372,0.599937379,2.165752888,2.547848701,0.314159274,-4.334449291,-5.000000000
1759716084.058805,-0.459991038,-0.303260088,0.009252689,0.000185728,0.000000000,1.200000048,0.004607810,0.000079816,0.000000000,0.041601781,0.331605643,0.050813116,1759716084058314.000000000,0.000000000,1.000000000,1.000000000,7.010034561,1.000000000,0.012630740,0.040820308,0.331275761,0.728089213,-0.417331487,-0.578028083,0.511467695,-0.047619998,-0.103498690,0.000000000,0.675068200,-0.049263228,0.323746920,0.597974181,2.195342541,2.579258442,0.314159274,-4.339367390,-5.000000000
1759716084.158699,-0.432673991,-0.338164300,0.007295049,0.000214577,0.000000000,1.200000048,0.003985968,0.002696777,0.000000000,0.039747275,0.331888437,0.051080897,1759716084158209.000000000,0.000000000,1.000000000,1.000000000,7.110039711,1.000000000,0.012598335,0.037683595,0.331499517,0.727906287,-0.453199953,-0.570733130,0.476759136,-0.103188418,-0.102164112,0.000000000,0.643713832,-0.106749155,0.371766031,0.590427458,2.227586031,2.610676050,0.314159274,-4.344872475,-5.000000000
1759716084.259990,-0.403684735,-0.363327324,0.013163312,0.000214100,0.000000000,1.200000048,0.004901420,0.004853317,0.000000000,0.036745436,0.332020402,0.051501729,1759716084259444.000000000,0.000000000,1.000000000,1.000000000,7.210122585,1.000000000,0.012794891,0.034437709,0.332096249,0.727652729,-0.484100312,-0.558096945,0.442185521,-0.157835096,-0.101071022,0.000000000,0.613336027,-0.163281545,0.413616866,0.577355325,2.257811546,2.642117977,0.314159274,-4.351798058,-5.000000000
1759716084.359027,-0.384430647,-0.395804971,0.024453735,0.000204802,0.000000000,1.200000048,0.006997980,0.006971020,0.000000000,0.035276521,0.331945747,0.052250478,1759716084358509.000000000,0.000000000,1.000000000,1.000000000,7.310111523,1.000000000,0.010311050,0.031940121,0.331216246,0.727412462,-0.516800046,-0.540260553,0.399754107,-0.210956618,-0.098357566,0.000000000,0.574987948,-0.218236133,0.453264624,0.558903396,2.291573524,2.673530340,0.314159274,-4.357949257,-5.000000000
1759716084.459966,-0.362376302,-0.425322682,0.022734514,0.000273705,0.000000000,1.200000048,0.005274070,0.008569094,0.000000000,0.030933592,0.331908673,0.053077240,1759716084459415.000000000,0.000000000,1.000000000,1.000000000,7.410137177,1.000000000,0.004902310,0.030170409,0.330627441,0.727380335,-0.546177268,-0.517371595,0.356330186,-0.262127399,-0.094452068,0.000000000,0.533500195,-0.271172673,0.483329773,0.535224617,2.323854923,2.704954386,0.314159274,-4.361151218,-5.000000000
1759716084.560751,-0.340537667,-0.445257425,0.031314787,0.000289917,0.000000000,1.200000048,-0.003022971,0.009921012,0.000000000,0.026619138,0.331124455,0.053528968,1759716084559641.000000000,0.000000000,1.000000000,1.000000000,7.510221481,1.000000000,-0.003853548,0.028803756,0.327632755,0.727595747,-0.575205564,-0.489632100,0.305375457,-0.310877055,-0.089432225,0.000000000,0.485085100,-0.321604520,0.508044004,0.506527901,2.359479189,2.736396790,0.314159274,-4.360824108,-5.000000000
1759716084.658763,-0.314999223,-0.454410940,0.016063450,0.000181675,0.000000000,1.200000048,-0.011358110,0.010934251,0.000000000,0.027068734,0.329873353,0.052987590,1759716084658225.000000000,0.000000000,1.000000000,1.000000000,7.610044479,1.000000000,-0.009441013,0.030853665,0.326061666,0.728006721,-0.600252688,-0.457403302,0.259020358,-0.356603920,-0.083597489,0.000000000,0.433963120,-0.368909299,0.529814243,0.473186970,2.391968489,2.767757177,0.314159274,-4.357745647,-5.000000000
1759716084.759390,-0.281960905,-0.464094996,0.009004957,0.000244617,0.000000000,1.200000048,-0.017485153,0.012308748,0.000000000,0.030573199,0.328607917,0.051700965,1759716084758892.000000000,0.000000000,1.000000000,1.000000000,7.710071564,1.000000000,-0.013930163,0.032735929,0.323289067,0.728199303,-0.622785866,-0.420840472,0.207254574,-0.399095774,-0.080053002,0.000000000,0.381308049,-0.412867427,0.547334313,0.435362458,2.426983118,2.799181461,0.314159274,-4.361003876,-5.000000000
1759716084.858810,-0.242769614,-0.464956671,0.016212462,0.000244856,0.000000000,1.200000048,-0.021006498,0.013845074,0.000000000,0.031405941,0.327345192,0.050163262,1759716084858307.000000000,0.000000000,1.000000000,1.000000000,7.810029507,1.000000000,-0.016210578,0.032622728,0.322183967,0.728174031,-0.640002370,-0.380375236,0.158388451,-0.437834263,-0.076777361,0.000000000,0.332439452,-0.452942640,0.557019591,0.393500894,2.459212065,2.830584288,0.314159274,-4.363456726,-5.000000000
1759716084.960663,-0.204480916,-0.463849574,0.014841556,0.000262499,0.000000000,1.200000048,-0.023784429,0.015558393,0.000000000,0.030188654,0.325597256,0.048341639,1759716084959790.000000000,0.000000000,1.000000000,1.000000000,7.910114288,1.000000000,-0.020496208,0.032419860,0.319607764,0.728448927,-0.655496359,-0.336303562,0.105507918,-0.472529411,-0.071625739,0.000000000,0.277593046,-0.488835067,0.561252952,0.347908437,2.494141340,2.862026930,0.314159274,-4.360023499,-5.000000000
1759716085.060842,-0.163001180,-0.457754970,0.000282191,0.000273466,0.000000000,1.200000048,-0.029829616,0.017091978,0.000000000,0.031752434,0.324157685,0.046179324,1759716085059958.000000000,0.000000000,1.000000000,1.000000000,8.010150909,1.000000000,-0.021752583,0.034362298,0.319197327,0.729185462,-0.666978240,-0.289110124,0.058510337,-0.502791703,-0.066809967,0.000000000,0.224158227,-0.520141602,0.562792480,0.299086481,2.525853157,2.893454313,0.314159274,-4.350021839,-5.000000000
1759716085.159249,-0.116417542,-0.452180564,-0.012635252,0.000252724,0.000000000,1.200000048,-0.028551504,0.019092869,0.000000000,0.032515682,0.322534025,0.043633502,1759716085158313.000000000,0.000000000,1.000000000,1.000000000,8.110044479,1.000000000,-0.022097608,0.034707315,0.317820102,0.729922175,-0.671789646,-0.239288777,0.008110291,-0.528322875,-0.063611194,0.000000000,0.169889048,-0.546553731,0.558618307,0.247545943,2.560326338,2.924836636,0.314159274,-4.339490891,-5.000000000
1759716085.259243,-0.074809715,-0.444305748,-0.034086403,0.000289202,0.000000000,1.200000048,-0.030625431,0.021117466,0.000000000,0.033265710,0.321107596,0.041194260,1759716085258752.000000000,0.000000000,1.000000000,1.000000000,8.210179329,1.000000000,-0.020244570,0.033391859,0.316367447,0.730687380,-0.669954121,-0.187109366,-0.036552541,-0.548975646,-0.061328951,0.000000000,0.124775767,-0.567919195,0.554214954,0.193565965,2.592319727,2.956295013,0.314159274,-4.325643539,-5.000000000
1759716085.358680,-0.027204541,-0.429457724,-0.053720545,0.000192881,0.000000000,1.200000048,-0.025088143,0.023364998,0.000000000,0.030837016,0.319719851,0.038707465,1759716085358208.000000000,0.000000000,1.000000000,1.000000000,8.310039520,1.000000000,-0.016211260,0.029893059,0.314742386,0.731585979,-0.661758125,-0.133328363,-0.083109848,-0.564453423,-0.060505766,0.000000000,0.080357216,-0.583931148,0.545948327,0.137929142,2.626978874,2.987667084,0.314159274,-4.308395863,-5.000000000
1759716085.459165,0.005658505,-0.426846355,-0.062109899,0.000273466,0.000000000,1.200000048,-0.023352643,0.025033141,0.000000000,0.026628140,0.318313956,0.037069466,1759716085458673.000000000,0.000000000,1.000000000,1.000000000,8.410066605,1.000000000,-0.012620076,0.026187757,0.314411312,0.732368410,-0.651432812,-0.078213140,-0.121860929,-0.574688494,-0.062006593,0.000000000,0.043564316,-0.594519317,0.534842491,0.080912054,2.656241417,3.019091606,0.314159274,-4.295670509,-5.000000000
1759716085.560708,0.041291896,-0.416851252,-0.082585953,0.000258207,0.000000000,1.200000048,-0.019600036,0.026608359,0.000000000,0.021563310,0.316870928,0.035669897,1759716085559801.000000000,0.000000000,1.000000000,1.000000000,8.510130882,1.000000000,-0.011979544,0.022316951,0.312532127,0.732687771,-0.633979261,-0.022346700,-0.168002605,-0.579555690,-0.067265846,0.000000000,0.001934944,-0.599554479,0.516118169,0.023117820,2.691732168,3.050527573,0.314159274,-4.287011147,-5.000000000
1759716085.660620,0.067245476,-0.412879139,-0.081690021,0.000210047,0.000000000,1.200000048,-0.019608758,0.027606592,0.000000000,0.018581022,0.316004127,0.034444239,1759716085659714.000000000,0.000000000,1.000000000,1.000000000,8.610105515,1.000000000,-0.012131386,0.021882346,0.310456067,0.732625365,-0.616466343,0.033678748,-0.208370745,-0.579007685,-0.073185787,0.000000000,-0.038127299,-0.598987579,0.497236580,-0.034840904,2.724241018,3.081935644,0.314159274,-4.283498764,-5.000000000
1759716085.758926,0.098067254,-0.401026398,-0.074812204,0.000195265,0.000000000,1.200000048,-0.019661399,0.028683035,0.000000000,0.019421952,0.314145565,0.033192877,1759716085758389.000000000,0.000000000,1.000000000,1.000000000,8.710052490,1.000000000,-0.011906161,0.022203954,0.308393359,0.732487679,-0.593506992,0.089374587,-0.249986425,-0.573058724,-0.078705475,0.000000000,-0.077256925,-0.592833340,0.476225257,-0.092458643,2.759294510,3.113334894,0.314159274,-4.278491974,-5.000000000
1759716085.859964,0.126942664,-0.391726226,-0.071934417,0.000205517,0.000000000,1.200000048,-0.016017271,0.029751629,0.000000000,0.019245502,0.312061340,0.032142565,1759716085859377.000000000,0.000000000,1.000000000,1.000000000,8.810122490,1.000000000,-0.010922832,0.021505721,0.306585371,0.732431710,-0.568960667,0.144303247,-0.286398321,-0.561747909,-0.083527468,0.000000000,-0.110473782,-0.581132233,0.455296576,-0.149282739,2.791486979,3.144772768,0.314159274,-4.274957657,-5.000000000
1759716085.960761,0.150983006,-0.378032744,-0.065871507,0.000298977,0.000000000,1.200000048,-0.012968530,0.030692307,0.000000000,0.016720265,0.310292661,0.031429723,1759716085959892.000000000,0.000000000,1.000000000,1.000000000,8.910152435,1.000000000,-0.010450874,0.021423463,0.305518389,0.732221067,-0.542283356,0.197861865,-0.321090698,-0.545192480,-0.088664822,0.000000000,-0.141656697,-0.564005494,0.431662560,-0.204689518,2.823377848,3.176198006,0.314159274,-4.274085045,-5.000000000
1759716086.059252,0.175985202,-0.365898818,-0.060591843,0.000242233,0.000000000,1.200000048,-0.013986756,0.031727877,0.000000000,0.016593751,0.308625907,0.030934794,1759716086058711.000000000,0.000000000,1.000000000,1.000000000,9.010018349,1.000000000,-0.014853103,0.019541243,0.303467035,0.731974125,-0.510501385,0.249489099,-0.359175861,-0.523583174,-0.093606010,0.000000000,-0.170224845,-0.541650534,0.397376567,-0.258098245,2.857858181,3.207571983,0.314159274,-4.273240566,-5.000000000
1759716086.158776,0.195039332,-0.355501860,-0.060600225,0.000212908,0.000000000,1.200000048,-0.018517010,0.032816216,0.000000000,0.018083319,0.306628615,0.030234404,1759716086158288.000000000,0.000000000,1.000000000,1.000000000,9.110042572,1.000000000,-0.023097759,0.019985143,0.301855206,0.731938481,-0.478303641,0.298868746,-0.398594886,-0.497052938,-0.096975312,0.000000000,-0.202438861,-0.514204800,0.354037762,-0.309181839,2.892477751,3.238995314,0.314159274,-4.266915798,-5.000000000
1759716086.258998,0.219072312,-0.336472690,-0.056422312,0.000220776,0.000000000,1.200000048,-0.026416130,0.033804737,0.000000000,0.018623697,0.304731816,0.029055640,1759716086258517.000000000,0.000000000,1.000000000,1.000000000,9.210047722,1.000000000,-0.030700583,0.021699596,0.300974399,0.732005417,-0.448835760,0.345448703,-0.429905057,-0.465885550,-0.099372938,0.000000000,-0.227575243,-0.481961936,0.316320688,-0.357369125,2.921872139,3.270412922,0.314159274,-4.262948513,-5.000000000
1759716086.359161,0.245563701,-0.307615042,-0.063093372,0.000243187,0.000000000,1.200000048,-0.036362376,0.035271417,0.000000000,0.020339791,0.303092539,0.026651762,1759716086358681.000000000,0.000000000,1.000000000,1.000000000,9.310087204,1.000000000,-0.036836967,0.021907326,0.298867583,0.732046783,-0.408005297,0.388816774,-0.466568083,-0.430355281,-0.102321699,0.000000000,-0.255368918,-0.445205599,0.266026407,-0.402233720,2.959475994,3.301841259,0.314159274,-4.257945538,-5.000000000
1759716086.459361,0.268404275,-0.273914754,-0.065162770,0.000280857,0.000000000,1.200000048,-0.041480526,0.036516815,0.000000000,0.018459911,0.302012205,0.024192469,1759716086458843.000000000,0.000000000,1.000000000,1.000000000,9.410175323,1.000000000,-0.042025171,0.022368431,0.297647268,0.732180834,-0.374984980,0.428570211,-0.492968231,-0.390783489,-0.104717948,0.000000000,-0.275411934,-0.404268295,0.223127320,-0.443358928,2.988851786,3.333284855,0.314159274,-4.253939152,-5.000000000
1759716086.558792,0.293047279,-0.224487558,-0.059746202,0.000181675,0.000000000,1.200000048,-0.047974374,0.037999403,0.000000000,0.016143642,0.300226331,0.020230806,1759716086558219.000000000,0.000000000,1.000000000,1.000000000,9.510046005,1.000000000,-0.043428686,0.017145554,0.295567125,0.732097149,-0.325619012,0.464242160,-0.518903971,-0.347654104,-0.108488031,0.000000000,-0.282682449,-0.359650642,0.172011778,-0.480261803,3.025982618,3.364660263,0.314159274,-4.252730370,-5.000000000
1759716086.661577,0.311452985,-0.182177588,-0.059315931,0.000292301,0.000000000,1.200000048,-0.048236556,0.038958110,0.000000000,0.013458873,0.298768073,0.016963392,1759716086660599.000000000,0.000000000,1.000000000,1.000000000,9.610284805,1.000000000,-0.043896243,0.015667768,0.295201480,0.731902361,-0.287963271,0.495697886,-0.535416663,-0.301110864,-0.111556008,0.000000000,-0.291341990,-0.311501354,0.129251629,-0.512803018,3.054565191,3.396151304,0.314159274,-4.252908230,-5.000000000
1759716086.758706,0.326318353,-0.131090611,-0.051627863,0.000255108,0.000000000,1.200000048,-0.048756279,0.039915506,0.000000000,0.011357158,0.296961993,0.012704602,1759716086758222.000000000,0.000000000,1.000000000,1.000000000,9.710028648,1.000000000,-0.043625314,0.014924746,0.294195175,0.731526077,-0.238554001,0.522382796,-0.549505055,-0.251992792,-0.115783975,0.000000000,-0.297597229,-0.260688335,0.077075362,-0.540408731,3.090363741,3.427486658,0.314159274,-4.258238316,-5.000000000
1759716086.858923,0.339183807,-0.087304473,-0.044931654,0.000183821,0.000000000,1.200000048,-0.046214297,0.040860344,0.000000000,0.012442073,0.296323746,0.009444941,1759716086858419.000000000,0.000000000,1.000000000,1.000000000,9.810094833,1.000000000,-0.041105516,0.013271108,0.294368953,0.731011927,-0.198524177,0.544277668,-0.554520488,-0.200364619,-0.118689649,0.000000000,-0.297319919,-0.207278624,0.037935644,-0.563059092,3.118313551,3.458923340,0.314159274,-4.263494968,-5.000000000
1759716086.958790,0.344714820,-0.039128702,-0.028098000,0.000198126,0.000000000,1.200000048,-0.042029649,0.041823383,0.000000000,0.005974313,0.295248061,0.005509217,1759716086958298.000000000,0.000000000,1.000000000,1.000000000,9.910049438,1.000000000,-0.037057903,0.008136522,0.293344885,0.730625212,-0.145188242,0.561068296,-0.552762032,-0.146923497,-0.121373087,0.000000000,-0.287887007,-0.151993394,-0.008922178,-0.580429137,3.154164553,3.490324974,0.314159274,-4.268599033,-5.000000000
1759716087.060871,0.343855619,-0.003248147,-0.024484469,0.000313282,0.000000000,1.200000048,-0.036999702,0.042334821,0.000000000,0.003759360,0.294464618,0.002965422,1759716087060066.000000000,0.000000000,1.000000000,1.000000000,10.010054588,1.000000000,-0.033989809,0.003512224,0.293710202,0.730043888,-0.102217600,0.572629690,-0.547667146,-0.092083581,-0.123093851,0.000000000,-0.275235415,-0.095261119,-0.044875558,-0.592389524,3.182746410,3.521742582,0.314159274,-4.278059483,-5.000000000
1759716087.158812,0.344764620,0.031033330,-0.013794749,0.000253916,0.000000000,1.200000048,-0.036402427,0.042526193,0.000000000,-0.001492605,0.294096142,0.000383709,1759716087158332.000000000,0.000000000,1.000000000,1.000000000,10.110037804,1.000000000,-0.032080233,0.001692824,0.293543041,0.729474187,-0.058034945,0.578843176,-0.538464487,-0.036396623,-0.123639874,0.000000000,-0.264437407,-0.037652567,-0.083610781,-0.598817408,3.213723898,3.553153038,0.314159274,-4.287090778,-5.000000000
1759716087.259618,0.336044163,0.070065707,0.002264045,0.000244141,0.000000000,1.200000048,-0.031037742,0.042504303,0.000000000,-0.001851352,0.293468356,-0.002012304,1759716087259037.000000000,0.000000000,1.000000000,1.000000000,10.210052490,1.000000000,-0.031219523,0.000903263,0.292630047,0.728889704,-0.011737105,0.579653442,-0.524415195,0.019648343,-0.123845316,0.000000000,-0.249502912,0.020326352,-0.124667741,-0.599655628,3.247040272,3.584573746,0.314159274,-4.299753189,-5.000000000
1759716087.358734,0.322379529,0.097326584,0.023062339,0.000251532,0.000000000,1.200000048,-0.029500147,0.042366855,0.000000000,-0.004554271,0.292821497,-0.003854377,1759716087358233.000000000,0.000000000,1.000000000,1.000000000,10.310031891,1.000000000,-0.031718865,-0.000365287,0.292517781,0.728166640,0.030246532,0.575052559,-0.508440614,0.075489789,-0.123279124,0.000000000,-0.230345353,0.078094728,-0.161111385,-0.594895959,3.277720213,3.615983248,0.314159274,-4.313769341,-5.000000000
1759716087.458838,0.306450188,0.125328988,0.034684312,0.000241280,0.000000000,1.200000048,-0.031302825,0.042337060,0.000000000,-0.005608102,0.292699009,-0.005879145,1759716087458350.000000000,0.000000000,1.000000000,1.000000000,10.410054207,1.000000000,-0.033363696,-0.002931421,0.292329937,0.727551699,0.074582145,0.565079391,-0.488619715,0.130650014,-0.120755382,0.000000000,-0.205073521,0.135158375,-0.199564889,-0.584578693,3.311101913,3.647406101,0.314159274,-4.328255653,-5.000000000
1759716087.558825,0.296560824,0.154414833,0.052147541,0.000190020,0.000000000,1.200000048,-0.032157090,0.042050056,0.000000000,-0.007857588,0.292246938,-0.007966913,1759716087558352.000000000,0.000000000,1.000000000,1.000000000,10.510061264,1.000000000,-0.033793848,-0.007707602,0.291925728,0.726944864,0.115784124,0.549830675,-0.464545488,0.184581622,-0.117321551,0.000000000,-0.173176512,0.190951005,-0.229260549,-0.568803787,3.342226982,3.678824186,0.314159274,-4.343284607,-5.000000000
1759716087.658699,0.278959185,0.180756539,0.059617680,0.000214100,0.000000000,1.200000048,-0.031749733,0.041558810,0.000000000,-0.012744758,0.292193294,-0.010066118,1759716087658194.000000000,0.000000000,1.000000000,1.000000000,10.610035896,1.000000000,-0.034982078,-0.011591834,0.292012423,0.726500750,0.153668508,0.529454947,-0.439151794,0.236773372,-0.112334706,0.000000000,-0.139856651,0.244943753,-0.258574456,-0.547724903,3.372999907,3.710232258,0.314159274,-4.355580330,-5.000000000
1759716087.761673,0.250730306,0.208416224,0.068536021,0.000341415,0.000000000,1.200000048,-0.035004944,0.040370680,0.000000000,-0.017163770,0.291537166,-0.012446990,1759716087760609.000000000,0.000000000,1.000000000,1.000000000,10.710235596,1.000000000,-0.036845669,-0.014393666,0.291023135,0.726166785,0.190842733,0.504075825,-0.409787267,0.286865354,-0.106416024,0.000000000,-0.102199860,0.296764255,-0.288453162,-0.521470010,3.405869246,3.741710901,0.314159274,-4.368928909,-5.000000000
1759716087.858834,0.219401449,0.239187971,0.076024786,0.000191689,0.000000000,1.200000048,-0.034979682,0.038981568,0.000000000,-0.019655580,0.291070998,-0.015120266,1759716087858347.000000000,0.000000000,1.000000000,1.000000000,10.810039520,1.000000000,-0.038306177,-0.015885966,0.290669471,0.725889921,0.223824188,0.474099666,-0.378330708,0.334086299,-0.099292845,0.000000000,-0.062130123,0.345614672,-0.316546053,-0.490459472,3.438283920,3.773065090,0.314159274,-4.380269051,-5.000000000
1759716087.958679,0.188150719,0.254817069,0.073043622,0.000181437,0.000000000,1.200000048,-0.032987934,0.037641235,0.000000000,-0.019353196,0.291006625,-0.017317245,1759716087958180.000000000,0.000000000,1.000000000,1.000000000,10.910024643,1.000000000,-0.042222179,-0.016603174,0.291440248,0.726077676,0.250932038,0.439647585,-0.348642975,0.378277868,-0.091368333,0.000000000,-0.022113990,0.391331166,-0.342383713,-0.454818577,3.467848778,3.804476500,0.314159274,-4.384401798,-5.000000000
1759716088.058818,0.157241955,0.282522470,0.063353211,0.000191212,0.000000000,1.200000048,-0.042479631,0.036244571,0.000000000,-0.021585096,0.290823907,-0.020295054,1759716088058312.000000000,0.000000000,1.000000000,1.000000000,11.010044098,1.000000000,-0.046787705,-0.018524051,0.291238248,0.726733565,0.278971583,0.401078284,-0.313492864,0.418951482,-0.081145778,0.000000000,0.024989363,0.433408320,-0.370915830,-0.414918363,3.500322819,3.835898638,0.314159274,-4.380756378,-5.000000000
1759716088.158787,0.119856857,0.310695708,0.050516795,0.000339031,0.000000000,1.200000048,-0.044586957,0.034845136,0.000000000,-0.022611441,0.290446222,-0.023592595,1759716088158289.000000000,0.000000000,1.000000000,1.000000000,11.110031128,1.000000000,-0.048936702,-0.019186407,0.292522967,0.727282763,0.301055223,0.358777285,-0.277690440,0.455700576,-0.074520200,0.000000000,0.069186375,0.471425474,-0.390767902,-0.371157676,3.530349016,3.867310286,0.314159274,-4.381035328,-5.000000000
1759716088.260700,0.082581788,0.345953852,0.043617558,0.000269175,0.000000000,1.200000048,-0.046005640,0.033517096,0.000000000,-0.023499509,0.290864855,-0.027406087,1759716088259827.000000000,0.000000000,1.000000000,1.000000000,11.210144997,1.000000000,-0.048555844,-0.021650406,0.291809231,0.727692544,0.319687039,0.313067079,-0.236469388,0.488234729,-0.068231829,0.000000000,0.117068216,0.505082309,-0.408592522,-0.323870122,3.562615395,3.898761988,0.314159274,-4.379908085,-5.000000000
1759716088.360765,0.045598954,0.370761216,0.031311061,0.000223160,0.000000000,1.200000048,-0.046180576,0.032090027,0.000000000,-0.026531719,0.291038603,-0.030969722,1759716088359867.000000000,0.000000000,1.000000000,1.000000000,11.310163498,1.000000000,-0.047884271,-0.022926627,0.293014675,0.728200316,0.333004117,0.264474541,-0.195319071,0.516175687,-0.063022166,0.000000000,0.163979486,0.533987463,-0.419753879,-0.273600787,3.592071295,3.930183887,0.314159274,-4.379086018,-5.000000000
1759716088.458831,0.000026608,0.395917356,0.034946013,0.000188112,0.000000000,1.200000048,-0.045056093,0.030472048,0.000000000,-0.029175650,0.291298747,-0.034928136,1759716088458339.000000000,0.000000000,1.000000000,1.000000000,11.410080910,1.000000000,-0.043913852,-0.030435771,0.292251706,0.728249013,0.344227582,0.213465035,-0.145445868,0.539274335,-0.060020037,0.000000000,0.221010521,0.557883143,-0.421489656,-0.220831096,3.624367476,3.961573839,0.314159274,-4.384323120,-5.000000000
1759716088.560380,-0.044623714,0.409904748,0.028493812,0.000294447,0.000000000,1.200000048,-0.040534630,0.028517863,0.000000000,-0.035623331,0.291573375,-0.038326118,1759716088559524.000000000,0.000000000,1.000000000,1.000000000,11.510022163,1.000000000,-0.039647728,-0.035162564,0.293315083,0.727875113,0.348861843,0.160452664,-0.098780930,0.557350039,-0.058213916,0.000000000,0.271036565,0.576582611,-0.416603774,-0.165989429,3.653645992,3.992971182,0.314159274,-4.397093296,-5.000000000
1759716088.658981,-0.092829421,0.414967746,0.048952173,0.000208139,0.000000000,1.200000048,-0.032566432,0.025861546,0.000000000,-0.039222863,0.292007267,-0.041429177,1759716088658487.000000000,0.000000000,1.000000000,1.000000000,11.610038757,1.000000000,-0.033253629,-0.038948786,0.293251634,0.727329791,0.347204924,0.105902560,-0.045701891,0.570235729,-0.055544533,0.000000000,0.322259903,0.589912951,-0.404695570,-0.109556958,3.685423613,4.024392128,0.314159274,-4.410831928,-5.000000000
1759716088.758978,-0.139473915,0.412562907,0.061014663,0.000269413,0.000000000,1.200000048,-0.028296836,0.023278916,0.000000000,-0.043307949,0.292051673,-0.043753829,1759716088758481.000000000,0.000000000,1.000000000,1.000000000,11.710072517,1.000000000,-0.026753990,-0.041966878,0.294790089,0.726916313,0.340537220,0.050353494,0.005747373,0.577796400,-0.051290981,0.000000000,0.367929071,0.597734511,-0.383392483,-0.052091051,3.715051651,4.055819035,0.314159274,-4.421384811,-5.000000000
1759716088.858838,-0.190736368,0.402215362,0.067690380,0.000247478,0.000000000,1.200000048,-0.018243978,0.020051990,0.000000000,-0.047791973,0.293132216,-0.045785572,1759716088858317.000000000,0.000000000,1.000000000,1.000000000,11.810045242,1.000000000,-0.016941752,-0.047328804,0.294807583,0.726704895,0.327891678,-0.005631545,0.062049605,0.579958975,-0.045306329,0.000000000,0.416172057,0.599971712,-0.351207912,0.005825873,3.747522593,4.087226391,0.314159274,-4.429112911,-5.000000000
1759716088.958811,-0.231705070,0.381336093,0.064846121,0.000179768,0.000000000,1.200000048,-0.007822417,0.016699824,0.000000000,-0.053552311,0.293586165,-0.046670474,1759716088958285.000000000,0.000000000,1.000000000,1.000000000,11.910064697,1.000000000,-0.009366671,-0.052788313,0.294706494,0.726822793,0.311900735,-0.061590217,0.111969046,0.576706827,-0.039252363,0.000000000,0.460103095,0.596607327,-0.317413360,0.063715518,3.777699947,4.118648052,0.314159274,-4.431770325,-5.000000000
1759716089.061176,-0.274669379,0.345961273,0.059153881,0.000259638,0.000000000,1.200000048,-0.000124134,0.012410570,0.000000000,-0.058960941,0.294188827,-0.046832398,1759716089059985.000000000,0.000000000,1.000000000,1.000000000,12.010153770,1.000000000,-0.004565919,-0.055866480,0.294746429,0.727184415,0.291043669,-0.117012106,0.161820292,0.568060160,-0.032004554,0.000000000,0.504232347,0.587662280,-0.277684540,0.121049859,3.810034990,4.150092125,0.314159274,-4.430856228,-5.000000000
1759716089.158921,-0.311651409,0.303814977,0.050442290,0.000247002,0.000000000,1.200000048,0.004834441,0.008257573,0.000000000,-0.059064277,0.294505984,-0.046252593,1759716089158439.000000000,0.000000000,1.000000000,1.000000000,12.110056877,1.000000000,-0.001773256,-0.056927230,0.295225143,0.727795780,0.267441601,-0.171239659,0.204167649,0.554130971,-0.024255153,0.000000000,0.541339755,0.573252439,-0.236372694,0.177148655,3.839654684,4.181477547,0.314159274,-4.425338745,-5.000000000
1759716089.258845,-0.343733042,0.260800958,0.033939254,0.000199795,0.000000000,1.200000048,0.008259004,0.004061799,0.000000000,-0.059435450,0.294765085,-0.045622591,1759716089258364.000000000,0.000000000,1.000000000,1.000000000,12.210060120,1.000000000,-0.000006492,-0.055993825,0.296902388,0.728558958,0.238787234,-0.223923028,0.241018981,0.535016477,-0.017882545,0.000000000,0.572191119,0.553478360,-0.193668008,0.231649980,3.869027138,4.212894440,0.314159274,-4.417363644,-5.000000000
1759716089.359338,-0.376810253,0.211711362,0.020197591,0.000751019,0.000000000,1.200000048,0.010339827,-0.000163928,0.000000000,-0.057215706,0.295246512,-0.044767916,1759716089358845.000000000,0.000000000,1.000000000,1.000000000,12.310030937,1.000000000,0.002554126,-0.052015845,0.298145205,0.729373157,0.205319196,-0.274500042,0.271969736,0.510914743,-0.013042127,0.000000000,0.596333742,0.528544962,-0.150029168,0.283972234,3.898234606,4.244301319,0.314159274,-4.409346104,-5.000000000
1759716089.459117,-0.402245522,0.162731156,0.008589587,0.000270844,0.000000000,1.200000048,0.014133592,-0.004266704,0.000000000,-0.050986376,0.296035916,-0.043707140,1759716089458586.000000000,0.000000000,1.000000000,1.000000000,12.410112381,1.000000000,0.004878117,-0.047880612,0.299380034,0.729757965,0.165929690,-0.322567016,0.300064623,0.482011080,-0.011092538,0.000000000,0.617297947,0.498643875,-0.100819245,0.333697885,3.929777145,4.275743008,0.314159274,-4.406742096,-5.000000000
1759716089.558965,-0.418189079,0.117521532,0.001139939,0.000288010,0.000000000,1.200000048,0.016318573,-0.007629229,0.000000000,-0.047294054,0.296896100,-0.042356178,1759716089558447.000000000,0.000000000,1.000000000,1.000000000,12.510025978,1.000000000,0.005642734,-0.044452619,0.300618440,0.729962051,0.128280893,-0.367544264,0.321858317,0.448659509,-0.010052680,0.000000000,0.633479416,0.464141488,-0.053565685,0.380227149,3.958837271,4.307131767,0.314159274,-4.404772282,-5.000000000
1759716089.659443,-0.427016467,0.070478834,0.004249624,0.000245094,0.000000000,1.200000048,0.014186830,-0.010786773,0.000000000,-0.042075623,0.297975928,-0.041177604,1759716089658513.000000000,0.000000000,1.000000000,1.000000000,12.610047340,1.000000000,0.005880600,-0.043106865,0.301696509,0.729804635,0.087094195,-0.409138888,0.341167718,0.411083341,-0.011630949,0.000000000,0.649146676,0.425268650,0.000283966,0.423257113,3.990181446,4.338554382,0.314159274,-4.411022663,-5.000000000
1759716089.759006,-0.436987966,0.030553520,0.013932585,0.000274420,0.000000000,1.200000048,0.014981104,-0.013553652,0.000000000,-0.043085758,0.298876345,-0.040211488,1759716089758469.000000000,0.000000000,1.000000000,1.000000000,12.710072517,1.000000000,0.004914962,-0.043046094,0.302880138,0.729312479,0.049161892,-0.446913153,0.353777707,0.369665772,-0.013090206,0.000000000,0.662515938,0.382421881,0.049848728,0.462334841,4.019075871,4.369978428,0.314159274,-4.419411659,-5.000000000
1759716089.858819,-0.444105327,-0.013764932,0.026910564,0.000242233,0.000000000,1.200000048,0.012425172,-0.016639959,0.000000000,-0.042059224,0.299988270,-0.039206792,1759716089858280.000000000,0.000000000,1.000000000,1.000000000,12.810044289,1.000000000,0.002169569,-0.042408384,0.303971559,0.728845477,0.007170964,-0.480495691,0.361843228,0.324820042,-0.013369027,0.000000000,0.674699426,0.336028636,0.102381885,0.497076213,4.050333977,4.401385307,0.314159274,-4.427445889,-5.000000000
1759716089.958791,-0.452950865,-0.051528875,0.039481554,0.000263214,0.000000000,1.200000048,0.007825013,-0.019385692,0.000000000,-0.041355025,0.301413804,-0.038903456,1759716089958304.000000000,0.000000000,1.000000000,1.000000000,12.910032272,1.000000000,0.001446701,-0.041744974,0.305130810,0.728667557,-0.032978810,-0.509599149,0.365656734,0.276934713,-0.011933328,0.000000000,0.681136847,0.286490917,0.151628524,0.527184010,4.079294682,4.432797432,0.314159274,-4.430913448,-5.000000000
1759716090.058628,-0.463537037,-0.084043548,0.043293457,0.000172853,0.000000000,1.200000048,0.006704763,-0.022253076,0.000000000,-0.040344439,0.302402079,-0.038914088,1759716090058152.000000000,0.000000000,1.000000000,1.000000000,13.010014534,1.000000000,0.001817416,-0.041113574,0.306127787,0.728762150,-0.076809257,-0.533944309,0.366113335,0.226467729,-0.007761753,0.000000000,0.685497999,0.234282479,0.204460293,0.552369177,4.110713005,4.464207649,0.314159274,-4.432325840,-5.000000000
