__time,/plotjuggler/logging/ax,/plotjuggler/logging/ay,/plotjuggler/logging/az,/plotjuggler/logging/comp_time,/plotjuggler/logging/controller,/plotjuggler/logging/lookahead_time,/plotjuggler/logging/p,/plotjuggler/logging/pitch,/plotjuggler/logging/platform,/plotjuggler/logging/q,/plotjuggler/logging/r,/plotjuggler/logging/roll,/plotjuggler/logging/timestamp,/plotjuggler/logging/timestamp_sample,/plotjuggler/logging/traj_double,/plotjuggler/logging/traj_spin,/plotjuggler/logging/traj_time,/plotjuggler/logging/trajectory,/plotjuggler/logging/u_p,/plotjuggler/logging/u_q,/plotjuggler/logging/u_r,/plotjuggler/logging/u_throttle,/plotjuggler/logging/vx,/plotjuggler/logging/vx_ref,/plotjuggler/logging/vy,/plotjuggler/logging/vy_ref,/plotjuggler/logging/vz,/plotjuggler/logging/vz_ref,/plotjuggler/logging/x,/plotjuggler/logging/x_ref,/plotjuggler/logging/y,/plotjuggler/logging/y_ref,/plotjuggler/logging/yaw,/plotjuggler/logging/yaw_ref,/plotjuggler/logging/yawd_ref,/plotjuggler/logging/z,/plotjuggler/logging/z_ref
1759716174.641247,0.051981393,0.010841798,-0.152794629,0.000895739,0.000000000,1.200000048,-0.008640903,-0.007295626,0.000000000,0.059326895,-0.001961388,0.002900328,1759716174637638.000000000,0.000000000,1.000000000,1.000000000,0.220422983,1.000000000,-0.083726488,0.303192675,0.386234164,0.754869878,-0.034737065,-0.568682671,0.004492034,0.113948025,-0.171786532,0.000000000,0.952287436,0.117880046,0.892475605,0.588306308,-0.006692254,0.446239054,0.314159274,-3.795795441,-5.000000000
1759716174.744938,-0.070414998,-0.020052209,-0.378386080,0.000915527,0.000000000,1.200000048,-0.044651184,0.004781100,0.000000000,0.100567102,0.050304797,-0.000481873,1759716174741293.000000000,0.000000000,1.000000000,1.000000000,0.323725224,1.000000000,-0.072324455,0.295531452,0.414702207,0.753576875,-0.035587683,-0.577209353,0.005589999,0.056688067,-0.189565092,0.000000000,0.949836254,0.058644209,0.895433068,0.597127199,-0.004251413,0.478692383,0.314159274,-3.814191818,-5.000000000
1759716174.849113,-0.308920413,-0.064684317,-0.616249561,0.002135992,0.000000000,1.200000048,-0.029964447,0.028389798,0.000000000,0.294816643,0.148033887,-0.004536373,1759716174845536.000000000,0.000000000,1.000000000,1.000000000,0.425076962,1.000000000,-0.062510520,0.248622268,0.433082014,0.749012351,-0.052782267,-0.579986334,0.002498573,-0.000043148,-0.249741122,0.000000000,0.944129586,-0.000044637,0.898172557,0.600000024,0.005452667,0.510532975,0.314159274,-3.830520391,-5.000000000
1759716174.931707,-0.576622546,-0.092266925,-0.488284022,0.000812531,0.000000000,1.200000048,-0.025002411,0.055022802,0.000000000,0.253149271,0.227143109,-0.006399760,1759716174930490.000000000,0.000000000,1.000000000,1.000000000,0.519014120,1.000000000,-0.056408521,0.183483586,0.444238454,0.744595051,-0.094274305,-0.577592969,-0.006436820,-0.052635577,-0.300648183,0.000000000,0.939050376,-0.054451883,0.894061983,0.597524047,0.022642436,0.540044188,0.314159274,-3.850371838,-5.000000000
1759716175.043312,-0.756502569,-0.126738727,-0.363373190,0.000954151,0.000000000,1.200000048,-0.028846219,0.073894233,0.000000000,0.179568544,0.283866614,-0.007355234,1759716175041863.000000000,0.000000000,1.000000000,1.000000000,0.622940540,1.000000000,-0.053393032,0.133177489,0.454365581,0.741269708,-0.151284143,-0.569401979,-0.015405411,-0.110297546,-0.335166395,0.000000000,0.931552529,-0.114103600,0.894165456,0.589050412,0.044117182,0.572693646,0.314159274,-3.869776249,-5.000000000
1759716175.153839,-0.896329880,-0.166362673,-0.264016896,0.001423836,0.000000000,1.200000048,-0.033254854,0.090255044,0.000000000,0.112601064,0.338013619,-0.007928904,1759716175150312.000000000,0.000000000,1.000000000,1.000000000,0.731502056,1.000000000,-0.048610825,0.072483219,0.455508918,0.737318158,-0.242676139,-0.554716170,-0.031306192,-0.169334397,-0.367469609,0.000000000,0.913870215,-0.175177634,0.889998496,0.573857844,0.078351103,0.606799245,0.314159274,-3.898614645,-5.000000000
1759716175.250151,-0.968546987,-0.205575570,-0.188129008,0.001992464,0.000000000,1.200000048,-0.036056839,0.098784693,0.000000000,0.062623724,0.371943772,-0.007955992,1759716175247026.000000000,0.000000000,1.000000000,1.000000000,0.827172756,1.000000000,-0.045599084,0.026910648,0.453026772,0.734024644,-0.331297398,-0.536708117,-0.048493423,-0.219837576,-0.387271732,0.000000000,0.889273822,-0.227423549,0.884766877,0.555228353,0.112570569,0.636855125,0.314159274,-3.930208683,-5.000000000
1759716175.336043,-0.979422629,-0.241089597,-0.103624530,0.000989437,0.000000000,1.200000048,-0.036806505,0.102458201,0.000000000,0.017594909,0.394928724,-0.007705390,1759716175334646.000000000,0.000000000,1.000000000,1.000000000,0.920993090,1.000000000,-0.044542242,-0.008005749,0.449686617,0.731126606,-0.416138530,-0.514592528,-0.066943102,-0.267541945,-0.399279952,0.000000000,0.858197927,-0.276774049,0.879580259,0.532349646,0.146563843,0.666329622,0.314159274,-3.964300156,-5.000000000
1759716175.442481,-0.940441489,-0.276100457,-0.023663973,0.000988960,0.000000000,1.200000048,-0.040092755,0.101681590,0.000000000,-0.032088131,0.412646145,-0.007273011,1759716175441203.000000000,0.000000000,1.000000000,1.000000000,1.028009892,1.000000000,-0.047212012,-0.041504491,0.442947686,0.727999747,-0.516308308,-0.484214455,-0.090577222,-0.319249928,-0.405538946,0.000000000,0.810564995,-0.330266327,0.874954820,0.500923276,0.188355520,0.699949980,0.314159274,-4.008332253,-5.000000000
1759716175.542403,-0.854135454,-0.305849940,0.038551163,0.000972271,0.000000000,1.200000048,-0.046245262,0.096259810,0.000000000,-0.067368142,0.423575342,-0.007334652,1759716175540972.000000000,0.000000000,1.000000000,1.000000000,1.127783060,1.000000000,-0.052053176,-0.071605973,0.430889547,0.725188136,-0.617675185,-0.451221794,-0.117823884,-0.364394069,-0.404032528,0.000000000,0.747459233,-0.376968265,0.870713770,0.466792166,0.233949751,0.731294632,0.314159274,-4.055080414,-5.000000000
1759716175.635861,-0.771198094,-0.328854918,0.069300637,0.000916243,0.000000000,1.200000048,-0.054681607,0.089650869,0.000000000,-0.088984579,0.427903116,-0.008181838,1759716175634486.000000000,0.000000000,1.000000000,1.000000000,1.222638369,1.000000000,-0.055289462,-0.091127060,0.423958510,0.723554850,-0.692363799,-0.415961385,-0.143876463,-0.404178530,-0.397920460,0.000000000,0.683704257,-0.418125570,0.860008895,0.430315018,0.270643562,0.761094272,0.314159274,-4.088481903,-5.000000000
1759716175.739226,-0.653237164,-0.349872768,0.104277387,0.000999928,0.000000000,1.200000048,-0.058464888,0.080622606,0.000000000,-0.112996504,0.428906858,-0.010144230,1759716175735966.000000000,0.000000000,1.000000000,1.000000000,1.319067717,1.000000000,-0.056812402,-0.110665508,0.413132042,0.722113192,-0.765075326,-0.376535535,-0.175986007,-0.441140741,-0.388221711,0.000000000,0.604400635,-0.456363231,0.844308257,0.389528692,0.312009037,0.791388452,0.314159274,-4.123353481,-5.000000000
1759716175.833836,-0.502019823,-0.364257336,0.120944336,0.001532078,0.000000000,1.200000048,-0.062093642,0.068419188,0.000000000,-0.128642127,0.426238239,-0.012996331,1759716175832527.000000000,0.000000000,1.000000000,1.000000000,1.420185089,1.000000000,-0.058591589,-0.124683119,0.400332153,0.720855355,-0.829904258,-0.331687808,-0.212528557,-0.475780785,-0.375603676,0.000000000,0.510276735,-0.492198616,0.824279547,0.343133390,0.357202500,0.823155403,0.314159274,-4.159922123,-5.000000000
1759716175.938316,-0.356648147,-0.364686728,0.134741873,0.000879765,0.000000000,1.200000048,-0.064303853,0.056073729,0.000000000,-0.142051369,0.421725899,-0.016520964,1759716175937026.000000000,0.000000000,1.000000000,1.000000000,1.525031090,1.000000000,-0.061237890,-0.128909394,0.394019336,0.719991922,-0.875685632,-0.281848520,-0.245084435,-0.506897986,-0.361775935,0.000000000,0.420546830,-0.524389565,0.802083075,0.291574299,0.395916045,0.856093764,0.314159274,-4.192198277,-5.000000000
1759716176.048911,-0.206591174,-0.358735681,0.141357064,0.001921177,0.000000000,1.200000048,-0.066922992,0.043037210,0.000000000,-0.145328283,0.416060835,-0.020639729,1759716176045549.000000000,0.000000000,1.000000000,1.000000000,1.625538111,1.000000000,-0.064163685,-0.126934588,0.389776140,0.719681919,-0.906807363,-0.231349394,-0.275109887,-0.531847358,-0.345728189,0.000000000,0.329559743,-0.550199866,0.779783428,0.239332587,0.431688368,0.887668967,0.314159274,-4.217929363,-5.000000000
1759716176.151921,-0.069143631,-0.352840334,0.151008353,0.001628876,0.000000000,1.200000048,-0.069810800,0.031256460,0.000000000,-0.142285839,0.410841674,-0.025175935,1759716176150125.000000000,0.000000000,1.000000000,1.000000000,1.730167866,1.000000000,-0.067512996,-0.119541243,0.390225410,0.719511032,-0.922544777,-0.176467896,-0.301916420,-0.552488208,-0.330678016,0.000000000,0.244638100,-0.571552992,0.758038998,0.182557300,0.463388771,0.920539379,0.314159274,-4.240671158,-5.000000000
1759716176.237859,0.094079517,-0.347306520,0.150246531,0.001823664,0.000000000,1.200000048,-0.069443196,0.017131945,0.000000000,-0.133403003,0.404794514,-0.031789143,1759716176236443.000000000,0.000000000,1.000000000,1.000000000,1.823892117,1.000000000,-0.062318947,-0.113985553,0.380277604,0.719346106,-0.925000668,-0.125758305,-0.336385727,-0.566188157,-0.311425686,0.000000000,0.137125880,-0.585725665,0.726188958,0.130097866,0.504044175,0.949983716,0.314159274,-4.268935204,-5.000000000
1759716176.335863,0.219832286,-0.338186771,0.156934366,0.001864672,0.000000000,1.200000048,-0.068566486,0.007053643,0.000000000,-0.124077499,0.399979204,-0.037452128,1759716176334568.000000000,0.000000000,1.000000000,1.000000000,1.921798706,1.000000000,-0.057528276,-0.103966862,0.378638625,0.719228566,-0.912801206,-0.071690977,-0.364965945,-0.575538516,-0.296426386,0.000000000,0.055888273,-0.595398664,0.695480645,0.074164830,0.537315428,0.980741978,0.314159274,-4.290573120,-5.000000000
1759716176.443445,0.361784935,-0.325343043,0.155631438,0.002031565,0.000000000,1.200000048,-0.059256632,-0.004170551,0.000000000,-0.109619454,0.393858790,-0.044551600,1759716176440090.000000000,0.000000000,1.000000000,1.000000000,2.019888163,1.000000000,-0.045343626,-0.092177339,0.369788319,0.719556689,-0.880281389,-0.016879525,-0.398736447,-0.579740644,-0.275863558,0.000000000,-0.041365452,-0.599745870,0.655188739,0.017461989,0.579209507,1.011557698,0.314159274,-4.309873104,-5.000000000
1759716176.548450,0.457300872,-0.311845779,0.154796973,0.000993013,0.000000000,1.200000048,-0.050562799,-0.011658117,0.000000000,-0.098215945,0.389066011,-0.049708784,1759716176544975.000000000,0.000000000,1.000000000,1.000000000,2.125210762,1.000000000,-0.041552763,-0.078102887,0.372238010,0.719876111,-0.844483674,0.042129043,-0.422305048,-0.578454256,-0.259560764,0.000000000,-0.115055956,-0.598415017,0.623448074,-0.043582797,0.610463798,1.044645786,0.314159274,-4.324300289,-5.000000000
1759716176.657155,0.563407242,-0.289196044,0.151539207,0.001122475,0.000000000,1.200000048,-0.040309753,-0.019744668,0.000000000,-0.076333985,0.384236395,-0.055835448,1759716176654526.000000000,0.000000000,1.000000000,1.000000000,2.238299608,1.000000000,-0.030400436,-0.063370705,0.367438704,0.720738530,-0.781956315,0.104986377,-0.452302009,-0.570405126,-0.236375555,0.000000000,-0.208515733,-0.590088189,0.578092396,-0.108609155,0.652630210,1.080173731,0.314159274,-4.335690975,-5.000000000
1759716176.754327,0.630326807,-0.271056950,0.133746296,0.001690388,0.000000000,1.200000048,-0.030782653,-0.024431143,0.000000000,-0.064334124,0.380476117,-0.060024086,1759716176751454.000000000,0.000000000,1.000000000,1.000000000,2.335828304,1.000000000,-0.023092618,-0.052014962,0.364953786,0.721569479,-0.723690569,0.158215791,-0.474937260,-0.557989180,-0.218890548,0.000000000,-0.278114855,-0.577243805,0.540927708,-0.163675353,0.687389493,1.110813260,0.314159274,-4.340762138,-5.000000000
1759716176.841486,0.677769542,-0.256132662,0.116182484,0.001025438,0.000000000,1.200000048,-0.024449408,-0.027249277,0.000000000,-0.052727271,0.377803624,-0.062945180,1759716176839953.000000000,0.000000000,1.000000000,1.000000000,2.423521042,1.000000000,-0.019855248,-0.043457985,0.364642024,0.722114861,-0.671566367,0.204890504,-0.491990000,-0.542590141,-0.206254736,0.000000000,-0.333589166,-0.561313331,0.510433733,-0.211960688,0.716210365,1.138362765,0.314159274,-4.345493793,-5.000000000
1759716176.952704,0.726794899,-0.237197205,0.102602869,0.001026869,0.000000000,1.200000048,-0.015825037,-0.029724298,0.000000000,-0.039347477,0.373816103,-0.066336125,1759716176951187.000000000,0.000000000,1.000000000,1.000000000,2.531979799,1.000000000,-0.010941555,-0.032217246,0.359999686,0.722766399,-0.591300905,0.260547012,-0.513466120,-0.518169284,-0.190248102,0.000000000,-0.398700774,-0.536049783,0.468097150,-0.269537747,0.756817639,1.172435999,0.314159274,-4.351060390,-5.000000000
1759716177.057206,0.751347005,-0.214351997,0.088787630,0.002002716,0.000000000,1.200000048,-0.005908587,-0.030708883,0.000000000,-0.027999654,0.369590640,-0.068920299,1759716177053709.000000000,0.000000000,1.000000000,1.000000000,2.632966280,1.000000000,0.005035078,-0.024618667,0.352190673,0.723420739,-0.504273593,0.309808940,-0.535149455,-0.490308642,-0.175650626,0.000000000,-0.449294150,-0.507227778,0.417603314,-0.320499539,0.798061728,1.204161882,0.314159274,-4.352572441,-5.000000000
1759716177.147400,0.758813918,-0.201688707,0.083669081,0.000951767,0.000000000,1.200000048,0.004096304,-0.030639783,0.000000000,-0.021010160,0.366817147,-0.069913618,1759716177145776.000000000,0.000000000,1.000000000,1.000000000,2.726509809,1.000000000,0.011735831,-0.020215027,0.351878256,0.724189579,-0.440296233,0.352818161,-0.549783051,-0.460329771,-0.165245682,0.000000000,-0.479346782,-0.476214439,0.377733618,-0.364992917,0.828163087,1.233549476,0.314159274,-4.349167824,-5.000000000
1759716177.250890,0.759715855,-0.178264096,0.059477050,0.002217054,0.000000000,1.200000048,0.019101631,-0.030032644,0.000000000,-0.015798835,0.362583756,-0.069824919,1759716177245579.000000000,0.000000000,1.000000000,1.000000000,2.820042849,1.000000000,0.022089686,-0.018402774,0.345214605,0.725052357,-0.363345474,0.392940253,-0.565927565,-0.426593602,-0.153867632,0.000000000,-0.509433210,-0.441314131,0.326963127,-0.406499505,0.865334630,1.262933731,0.314159274,-4.343782902,-5.000000000
1759716177.345677,0.746731102,-0.144657582,0.045918856,0.001704216,0.000000000,1.200000048,0.028998854,-0.029003041,0.000000000,-0.013195716,0.357960939,-0.068338759,1759716177342457.000000000,0.000000000,1.000000000,1.000000000,2.925700903,1.000000000,0.029590756,-0.018732842,0.339349568,0.725350440,-0.281078875,0.434386492,-0.580865800,-0.384307861,-0.144727513,0.000000000,-0.534835935,-0.397569209,0.269599169,-0.449375927,0.905155599,1.296127200,0.314159274,-4.346792221,-5.000000000
1759716177.437401,0.723158300,-0.114052288,0.040531155,0.001991272,0.000000000,1.200000048,0.034900848,-0.028058730,0.000000000,-0.013778245,0.352954328,-0.066177852,1759716177436060.000000000,0.000000000,1.000000000,1.000000000,3.021620512,1.000000000,0.033602562,-0.019033566,0.333914876,0.725537479,-0.207830712,0.468102634,-0.589489937,-0.342438430,-0.137398750,0.000000000,-0.552928746,-0.354254991,0.218176216,-0.484255522,0.941398621,1.326261163,0.314159274,-4.350072861,-5.000000000
1759716177.541081,0.689643204,-0.073795713,0.039707866,0.001026392,0.000000000,1.200000048,0.042772964,-0.027208248,0.000000000,-0.015087601,0.347397894,-0.063070834,1759716177539587.000000000,0.000000000,1.000000000,1.000000000,3.123972654,1.000000000,0.035477664,-0.021854436,0.328992575,0.725848317,-0.133541450,0.499638379,-0.595955193,-0.294526100,-0.129639640,0.000000000,-0.567744792,-0.304689378,0.160053700,-0.516879499,0.979139984,1.358416080,0.314159274,-4.351804733,-5.000000000
1759716177.646738,0.660984755,-0.041246228,0.026295891,0.001657724,0.000000000,1.200000048,0.043546841,-0.026769856,0.000000000,-0.018286401,0.342563629,-0.059996624,1759716177643308.000000000,0.000000000,1.000000000,1.000000000,3.226711988,1.000000000,0.032047674,-0.025681172,0.330388397,0.726339161,-0.074269466,0.526378453,-0.599107981,-0.243536130,-0.123276770,0.000000000,-0.576151431,-0.251939863,0.109473564,-0.544542313,1.009634018,1.390692592,0.314159274,-4.349502563,-5.000000000
1759716177.740959,0.628744006,-0.001393884,0.009942799,0.002050638,0.000000000,1.200000048,0.042126596,-0.026806166,0.000000000,-0.022843564,0.338871002,-0.056453500,1759716177735793.000000000,0.000000000,1.000000000,1.000000000,3.319825649,1.000000000,0.034413688,-0.029517902,0.324615121,0.727069199,-0.006858784,0.546138287,-0.598774612,-0.195236102,-0.116649978,0.000000000,-0.580272675,-0.201973140,0.049057335,-0.564983964,1.045391321,1.419945121,0.314159274,-4.342448711,-5.000000000
1759716177.866255,0.597031772,0.052698277,-0.011407769,0.001983404,0.000000000,1.200000048,0.040652066,-0.027633360,0.000000000,-0.026360668,0.334013075,-0.052545790,1759716177861381.000000000,0.000000000,1.000000000,1.000000000,3.438421965,1.000000000,0.035337102,-0.031540915,0.320413768,0.728025258,0.067439988,0.564886391,-0.591483057,-0.131482109,-0.110412143,0.000000000,-0.575604796,-0.136019170,-0.019040070,-0.584378958,1.087326527,1.457203269,0.314159274,-4.330519676,-5.000000000
1759716177.951030,0.570161521,0.089079760,-0.024441628,0.001736879,0.000000000,1.200000048,0.041600015,-0.028523747,0.000000000,-0.027949540,0.330811620,-0.049739569,1759716177948085.000000000,0.000000000,1.000000000,1.000000000,3.526930571,1.000000000,0.035532992,-0.036179472,0.319225520,0.728571653,0.118034981,0.574055552,-0.586126506,-0.082730532,-0.107883878,0.000000000,-0.569481313,-0.085585326,-0.071397319,-0.593864620,1.116109252,1.485009074,0.314159274,-4.322998047,-5.000000000
1759716178.059232,0.535678446,0.139226899,-0.042347234,0.002795219,0.000000000,1.200000048,0.041925862,-0.030194743,0.000000000,-0.034269482,0.327599883,-0.046246883,1759716178055099.000000000,0.000000000,1.000000000,1.000000000,3.636128664,1.000000000,0.035838332,-0.041554030,0.317537457,0.729112923,0.178497270,0.579576969,-0.574136674,-0.021787709,-0.106762491,0.000000000,-0.556863546,-0.022539539,-0.138531074,-0.599576473,1.152489901,1.519314647,0.314159274,-4.314254284,-5.000000000
1759716178.143373,0.514053464,0.179509804,-0.055243257,0.000990152,0.000000000,1.200000048,0.040284418,-0.032071814,0.000000000,-0.039043058,0.325727344,-0.043608278,1759716178140092.000000000,0.000000000,1.000000000,1.000000000,3.726879597,1.000000000,0.034839183,-0.043672614,0.316808939,0.729097188,0.223788857,0.579257190,-0.559102058,0.029073600,-0.108371146,0.000000000,-0.542529762,0.030076846,-0.188976765,-0.599245667,1.181593180,1.547824860,0.314159274,-4.313199997,-5.000000000
1759716178.236542,0.488886535,0.229522079,-0.045686956,0.001250744,0.000000000,1.200000048,0.041668341,-0.034695592,0.000000000,-0.039667726,0.323018968,-0.040627226,1759716178235070.000000000,0.000000000,1.000000000,1.000000000,3.820986032,1.000000000,0.033822332,-0.041943073,0.313923776,0.728670597,0.271085232,0.574221015,-0.536415994,0.081574269,-0.111722797,0.000000000,-0.522721529,0.084389165,-0.239485651,-0.594035745,1.214597464,1.577389240,0.314159274,-4.317723751,-5.000000000
1759716178.352894,0.464415878,0.270358056,-0.044283453,0.000956059,0.000000000,1.200000048,0.039477807,-0.036871087,0.000000000,-0.038292449,0.321249723,-0.038215108,1759716178349619.000000000,0.000000000,1.000000000,1.000000000,3.930670500,1.000000000,0.025356190,-0.041469947,0.319416642,0.728396416,0.307360351,0.562363744,-0.512589633,0.141884446,-0.113665096,0.000000000,-0.504979789,0.146780476,-0.275676519,-0.581769288,1.242427468,1.611847639,0.314159274,-4.321469784,-5.000000000
1759716178.443297,0.427298754,0.328042507,-0.039522532,0.001909971,0.000000000,1.200000048,0.034804873,-0.040050305,0.000000000,-0.033322696,0.319351941,-0.035126153,1759716178437245.000000000,0.000000000,1.000000000,1.000000000,4.020536423,1.000000000,0.029568782,-0.031681240,0.309096545,0.728354573,0.357503831,0.547933459,-0.471364319,0.190139636,-0.114499189,0.000000000,-0.470638067,0.196700811,-0.324151486,-0.566841066,1.283172846,1.640079856,0.314159274,-4.320156097,-5.000000000
1759716178.547372,0.402470857,0.361093521,-0.036080364,0.002086401,0.000000000,1.200000048,0.033356108,-0.041963611,0.000000000,-0.029462071,0.317261100,-0.033032592,1759716178544007.000000000,0.000000000,1.000000000,1.000000000,4.123901367,1.000000000,0.030551841,-0.030287560,0.310733110,0.728478491,0.395192832,0.526233971,-0.437171549,0.243848294,-0.114894196,0.000000000,-0.434997916,0.252262801,-0.362462193,-0.544392765,1.313883424,1.672553062,0.314159274,-4.317540169,-5.000000000
1759716178.643550,0.379527479,0.388110936,-0.047023404,0.001171589,0.000000000,1.200000048,0.033427440,-0.043477714,0.000000000,-0.027771160,0.315794885,-0.031294961,1759716178642060.000000000,0.000000000,1.000000000,1.000000000,4.223603249,1.000000000,0.031146312,-0.032367233,0.314606160,0.728508830,0.426955163,0.500327229,-0.405067503,0.293354422,-0.116225921,0.000000000,-0.400939077,0.303477228,-0.397636354,-0.517592072,1.340651512,1.703875184,0.314159274,-4.316038132,-5.000000000
1759716178.744796,0.346977919,0.413559794,-0.041667368,0.002310038,0.000000000,1.200000048,0.036865208,-0.045061421,0.000000000,-0.028092975,0.314459980,-0.029196730,1759716178743317.000000000,0.000000000,1.000000000,1.000000000,4.327829838,1.000000000,0.029132554,-0.035760552,0.318252891,0.728462458,0.456441700,0.468284518,-0.368297875,0.342189670,-0.118038341,0.000000000,-0.368543655,0.353997648,-0.434877783,-0.484443665,1.369067550,1.736618996,0.314159274,-4.315827847,-5.000000000
1759716178.837111,0.311586171,0.440024406,-0.040989365,0.002091169,0.000000000,1.200000048,0.035732802,-0.047082022,0.000000000,-0.030347526,0.314910680,-0.026967676,1759716178835715.000000000,0.000000000,1.000000000,1.000000000,4.422161102,1.000000000,0.032384027,-0.037001900,0.317620248,0.728279054,0.487033576,0.435179800,-0.327589482,0.383409292,-0.119653471,0.000000000,-0.328135341,0.396639645,-0.473724425,-0.450196594,1.399466157,1.766253948,0.314159274,-4.318030357,-5.000000000
1759716178.954561,0.277986020,0.476317495,-0.038336027,0.002119541,0.000000000,1.200000048,0.036611881,-0.049319368,0.000000000,-0.033202540,0.315337569,-0.024913093,1759716178950620.000000000,0.000000000,1.000000000,1.000000000,4.530187130,1.000000000,0.033308711,-0.037260607,0.321033895,0.727964044,0.512190580,0.392845422,-0.283178568,0.426680952,-0.121625870,0.000000000,-0.285391778,0.441404492,-0.503811479,-0.406401396,1.429472685,1.800191402,0.314159274,-4.322617531,-5.000000000
1759716179.035148,0.235540375,0.506934464,-0.019867903,0.001978397,0.000000000,1.200000048,0.039600529,-0.051774547,0.000000000,-0.029760422,0.316056013,-0.022587832,1759716179033789.000000000,0.000000000,1.000000000,1.000000000,4.620577812,1.000000000,0.038171832,-0.031419013,0.316119045,0.727379024,0.535239816,0.354112685,-0.230969608,0.459334671,-0.123524360,0.000000000,-0.235897094,0.475185007,-0.531072080,-0.366332114,1.463892817,1.828588486,0.314159274,-4.331382751,-5.000000000
1759716179.148067,0.194699377,0.534411669,-0.007954425,0.002070904,0.000000000,1.200000048,0.043362778,-0.053764675,0.000000000,-0.024995020,0.315814584,-0.020149723,1759716179146427.000000000,0.000000000,1.000000000,1.000000000,4.728906155,1.000000000,0.039044131,-0.030062078,0.318155587,0.726950347,0.552617729,0.304161668,-0.180507243,0.493831784,-0.124073878,0.000000000,-0.188006192,0.510872483,-0.551356077,-0.314657420,1.495523453,1.862620831,0.314159274,-4.339386940,-5.000000000
1759716179.240274,0.155171454,0.554855704,-0.009063630,0.002089739,0.000000000,1.200000048,0.042955015,-0.055663325,0.000000000,-0.023634110,0.315778255,-0.017626539,1759716179238200.000000000,0.000000000,1.000000000,1.000000000,4.820222855,1.000000000,0.043261174,-0.022182014,0.314859927,0.727241397,0.566805124,0.259443164,-0.124687739,0.518722832,-0.121204928,0.000000000,-0.136650041,0.536622465,-0.563832521,-0.268395782,1.528288722,1.891308784,0.314159274,-4.336553574,-5.000000000
1759716179.338398,0.111143611,0.569937646,-0.014062970,0.001492500,0.000000000,1.200000048,0.044963859,-0.057187576,0.000000000,-0.015482823,0.315775901,-0.015004587,1759716179336706.000000000,0.000000000,1.000000000,1.000000000,4.921899796,1.000000000,0.046156634,-0.014235590,0.313762009,0.728019536,0.576413095,0.207290336,-0.065308630,0.541677833,-0.116690867,0.000000000,-0.084906563,0.560369551,-0.568606794,-0.214443341,1.561688900,1.923251510,0.314159274,-4.326226711,-5.000000000
1759716179.440790,0.054291800,0.575728476,-0.035931353,0.001207113,0.000000000,1.200000048,0.048383374,-0.057928804,0.000000000,-0.006444988,0.314559430,-0.011674702,1759716179438847.000000000,0.000000000,1.000000000,1.000000000,5.025566578,1.000000000,0.050783869,-0.003793274,0.308559537,0.728474200,0.581786335,0.152060181,0.004395446,0.559697986,-0.113985270,0.000000000,-0.023338199,0.579011559,-0.566549599,-0.157307342,1.600384593,1.955819368,0.314159274,-4.319533348,-5.000000000
1759716179.550559,0.000898064,0.567390382,-0.037736256,0.002198219,0.000000000,1.200000048,0.051537883,-0.057814032,0.000000000,0.002210246,0.313529432,-0.008539453,1759716179548643.000000000,0.000000000,1.000000000,1.000000000,5.130265713,1.000000000,0.052287474,-0.000337081,0.308954686,0.728824079,0.580567062,0.094733499,0.062294163,0.572197258,-0.112916306,0.000000000,0.028991746,0.591942132,-0.559766769,-0.098002478,1.632845640,1.988711596,0.314159274,-4.313811302,-5.000000000
1759716179.635507,-0.047414027,0.551854014,-0.047536563,0.001110792,0.000000000,1.200000048,0.053222675,-0.057067368,0.000000000,0.008303124,0.311951250,-0.005115414,1759716179633525.000000000,0.000000000,1.000000000,1.000000000,5.219431877,1.000000000,0.053574421,0.003972511,0.306007594,0.729133725,0.574219465,0.045123950,0.117451094,0.578228295,-0.112674884,0.000000000,0.079719909,0.598181307,-0.549263775,-0.046681050,1.664240956,2.016724110,0.314159274,-4.307641983,-5.000000000
1759716179.743810,-0.095966756,0.534236491,-0.049692575,0.001334906,0.000000000,1.200000048,0.054219894,-0.056038622,0.000000000,0.009976952,0.310589194,-0.001873768,1759716179740421.000000000,0.000000000,1.000000000,1.000000000,5.320335865,1.000000000,0.052867513,0.002278854,0.309655786,0.729036748,0.564346433,-0.011400370,0.165118113,0.579874277,-0.114318997,0.000000000,0.123708732,0.599884093,-0.536208808,0.011793764,1.691750884,2.048424006,0.314159274,-4.307788372,-5.000000000
1759716179.847961,-0.157021284,0.502775073,-0.045777295,0.001199007,0.000000000,1.200000048,0.053914201,-0.054935005,0.000000000,0.008233723,0.310114443,0.002643859,1759716179845879.000000000,0.000000000,1.000000000,1.000000000,5.431405544,1.000000000,0.050312668,0.007540841,0.307172030,0.728829265,0.541732311,-0.073473290,0.227082491,0.575313687,-0.116579376,0.000000000,0.178355843,0.595166087,-0.511412740,0.076008640,1.729441404,2.083317518,0.314159274,-4.308540344,-5.000000000
1759716179.940895,-0.200988784,0.480911851,-0.039266419,0.001774549,0.000000000,1.200000048,0.053524621,-0.054011796,0.000000000,0.011844357,0.309812605,0.005871558,1759716179938241.000000000,0.000000000,1.000000000,1.000000000,5.522820473,1.000000000,0.048948303,0.006782164,0.308316946,0.728753924,0.521837473,-0.123958595,0.267614841,0.566584885,-0.117542036,0.000000000,0.219179511,0.586136103,-0.492456228,0.128236055,1.756847024,2.112036467,0.314159274,-4.308975220,-5.000000000
1759716180.041714,-0.242888555,0.459146142,-0.039116476,0.002142429,0.000000000,1.200000048,0.050925862,-0.053102933,0.000000000,0.010961883,0.309700638,0.009048483,1759716180040061.000000000,0.000000000,1.000000000,1.000000000,5.620615959,1.000000000,0.047297083,0.003986759,0.311689556,0.728758276,0.498442799,-0.176886588,0.305082858,0.552354336,-0.117955647,0.000000000,0.257242411,0.571414471,-0.471859843,0.182990432,1.783800244,2.142759800,0.314159274,-4.308782578,-5.000000000
1759716180.147181,-0.284882873,0.433952063,-0.041693445,0.001160145,0.000000000,1.200000048,0.048612230,-0.052196957,0.000000000,0.012142166,0.309831411,0.012400981,1759716180142310.000000000,0.000000000,1.000000000,1.000000000,5.719815254,1.000000000,0.042114161,0.004549265,0.313220441,0.728836179,0.467027813,-0.228958309,0.343775392,0.532881081,-0.118208431,0.000000000,0.290783018,0.551269293,-0.445965767,0.236859009,1.813400865,2.173924208,0.314159274,-4.306939125,-5.000000000
1759716180.245086,-0.326923907,0.399128526,-0.040024515,0.001303673,0.000000000,1.200000048,0.040060855,-0.051189579,0.000000000,0.012606615,0.310118049,0.015807552,1759716180243222.000000000,0.000000000,1.000000000,1.000000000,5.827983856,1.000000000,0.039603200,0.011405235,0.310171932,0.728717387,0.424386203,-0.283324480,0.391035050,0.506074488,-0.119899936,0.000000000,0.330685109,0.523537695,-0.405051440,0.293101192,1.850617409,2.207906246,0.314159274,-4.306688786,-5.000000000
1759716180.353681,-0.354470760,0.377070934,-0.044533979,0.002048969,0.000000000,1.200000048,0.038350049,-0.050483212,0.000000000,0.014188762,0.310307831,0.017753515,1759716180349667.000000000,0.000000000,1.000000000,1.000000000,5.926947594,1.000000000,0.040610004,0.012773101,0.315564185,0.729063988,0.393740088,-0.330367714,0.422594398,0.476698369,-0.119767420,0.000000000,0.354497284,0.493147850,-0.372157097,0.341767758,1.875648737,2.238996506,0.314159274,-4.300154209,-5.000000000
1759716180.452783,-0.382015407,0.343092203,-0.050604340,0.002546549,0.000000000,1.200000048,0.036639839,-0.049183372,0.000000000,0.022318382,0.310625017,0.020085171,1759716180450741.000000000,0.000000000,1.000000000,1.000000000,6.027292252,1.000000000,0.040993217,0.019329356,0.313911140,0.729327261,0.350125462,-0.374980986,0.459017992,0.442462891,-0.120745085,0.000000000,0.382978737,0.457731009,-0.326951504,0.387920529,1.908726454,2.270520926,0.314159274,-4.293595791,-5.000000000
1759716180.538342,-0.406276345,0.305787802,-0.064721324,0.001148701,0.000000000,1.200000048,0.038254101,-0.047308486,0.000000000,0.022092484,0.311339945,0.022506209,1759716180536256.000000000,0.000000000,1.000000000,1.000000000,6.121516705,1.000000000,0.039787892,0.026202690,0.309879333,0.729439020,0.302376300,-0.413671166,0.491023690,0.406522214,-0.123002335,0.000000000,0.407055497,0.420550138,-0.278754056,0.427945763,1.942611933,2.300122261,0.314159274,-4.288265705,-5.000000000
1759716180.642883,-0.421076953,0.274323285,-0.061650757,0.001907110,0.000000000,1.200000048,0.037523221,-0.045736603,0.000000000,0.030010853,0.311181039,0.024500787,1759716180641063.000000000,0.000000000,1.000000000,1.000000000,6.220307350,1.000000000,0.040897124,0.028257463,0.313441604,0.729597688,0.263316840,-0.450548321,0.515126824,0.365226448,-0.124568909,0.000000000,0.421598852,0.377829373,-0.237616971,0.466095448,1.969217658,2.331158161,0.314159274,-4.283353329,-5.000000000
1759716180.741321,-0.433270276,0.217080802,-0.068154179,0.001947641,0.000000000,1.200000048,0.036462661,-0.042640347,0.000000000,0.038239338,0.310657471,0.027317259,1759716180739627.000000000,0.000000000,1.000000000,1.000000000,6.324593544,1.000000000,0.043300211,0.037809566,0.307231337,0.729470491,0.206326500,-0.485016406,0.546463311,0.318030238,-0.128508940,0.000000000,0.443907171,0.329004556,-0.170453951,0.501752913,2.008723974,2.363920927,0.314159274,-4.281283855,-5.000000000
1759716180.837361,-0.447464973,0.161210045,-0.061981376,0.001052856,0.000000000,1.200000048,0.036674675,-0.039590072,0.000000000,0.043532182,0.309826881,0.029673025,1759716180835474.000000000,0.000000000,1.000000000,1.000000000,6.421843052,1.000000000,0.047487009,0.039459612,0.306727141,0.729560256,0.161468118,-0.512727499,0.565193355,0.271099001,-0.130810469,0.000000000,0.460384220,0.280453861,-0.115933537,0.530420244,2.039835453,2.394472599,0.314159274,-4.277337551,-5.000000000
1759716180.937621,-0.453745037,0.109039605,-0.059050504,0.001102686,0.000000000,1.200000048,0.042262334,-0.036304373,0.000000000,0.045534305,0.309392005,0.032374747,1759716180935505.000000000,0.000000000,1.000000000,1.000000000,6.519402504,1.000000000,0.049350124,0.042388387,0.306515217,0.729604959,0.114676476,-0.535977364,0.579893410,0.221613139,-0.133131534,0.000000000,0.468292981,0.229260385,-0.058550589,0.554472446,2.070440292,2.425121784,0.314159274,-4.274380684,-5.000000000
1759716181.041764,-0.465811074,0.053730603,-0.067622393,0.001157045,0.000000000,1.200000048,0.045853205,-0.033204518,0.000000000,0.047523782,0.308657885,0.035392750,1759716181040131.000000000,0.000000000,1.000000000,1.000000000,6.626342773,1.000000000,0.050329402,0.044145908,0.311486483,0.729563951,0.069508836,-0.555984259,0.589526653,0.165123060,-0.135349736,0.000000000,0.466700554,0.170820996,-0.003475027,0.575169683,2.098158121,2.458718061,0.314159274,-4.273425579,-5.000000000
1759716181.150010,-0.475305796,-0.022518480,-0.058813017,0.002073288,0.000000000,1.200000048,0.042967141,-0.029024145,0.000000000,0.053009205,0.308115840,0.039583806,1759716181148147.000000000,0.000000000,1.000000000,1.000000000,6.730724335,1.000000000,0.042982366,0.049804959,0.308449179,0.729159296,0.009109866,-0.569789112,0.591044009,0.108279675,-0.139237046,0.000000000,0.457551032,0.112016097,0.062951066,0.589450955,2.133876324,2.491510630,0.314159274,-4.276661873,-5.000000000
1759716181.237166,-0.472154677,-0.082374759,-0.055142675,0.001183510,0.000000000,1.200000048,0.037243497,-0.025308250,0.000000000,0.055208504,0.307586640,0.042345319,1759716181235604.000000000,0.000000000,1.000000000,1.000000000,6.820657730,1.000000000,0.040585835,0.049628295,0.308666259,0.729269683,-0.035716087,-0.577038705,0.585653543,0.058399476,-0.140729636,0.000000000,0.450103581,0.060414672,0.114843220,0.596950650,2.161669016,2.519763947,0.314159274,-4.273347378,-5.000000000
1759716181.358338,-0.462736666,-0.159552276,-0.057077032,0.002557039,0.000000000,1.200000048,0.032604426,-0.020253107,0.000000000,0.054530818,0.306971341,0.045647204,1759716181353973.000000000,0.000000000,1.000000000,1.000000000,6.926423550,1.000000000,0.036195196,0.051337909,0.305070370,0.729567170,-0.094800517,-0.579985797,0.571208596,-0.000798099,-0.141682953,0.000000000,0.435586274,-0.000825639,0.185541794,0.599999428,2.198991299,2.552991152,0.314159274,-4.267041206,-5.000000000
1759716181.445044,-0.450392127,-0.213797241,-0.054489817,0.002108812,0.000000000,1.200000048,0.031365167,-0.016463654,0.000000000,0.052428573,0.306842655,0.048145823,1759716181443016.000000000,0.000000000,1.000000000,1.000000000,7.028303623,1.000000000,0.035135407,0.050418001,0.307082474,0.730184674,-0.141188219,-0.577097058,0.553633928,-0.057819966,-0.141818285,0.000000000,0.420274943,-0.059815165,0.241279364,0.597011030,2.228744507,2.584997892,0.314159274,-4.256143570,-5.000000000
1759716181.548361,-0.438608050,-0.274346769,-0.074373551,0.002008677,0.000000000,1.200000048,0.026793744,-0.012533473,0.000000000,0.053703081,0.306854129,0.050888032,1759716181546865.000000000,0.000000000,1.000000000,1.000000000,7.132061958,1.000000000,0.031148970,0.050503496,0.307032257,0.730908990,-0.190826952,-0.568407357,0.528100967,-0.115313701,-0.142340034,0.000000000,0.398541540,-0.119292848,0.298732847,0.588021457,2.261357784,2.617594481,0.314159274,-4.242285252,-5.000000000
1759716181.644848,-0.425862938,-0.319467723,-0.081696540,0.002200127,0.000000000,1.200000048,0.027227316,-0.009641069,0.000000000,0.051078167,0.307436347,0.052884098,1759716181641203.000000000,0.000000000,1.000000000,1.000000000,7.220347404,1.000000000,0.027678141,0.049999334,0.309174001,0.731211960,-0.228715956,-0.556509793,0.503710091,-0.163343266,-0.144357130,0.000000000,0.376299113,-0.168979779,0.339078844,0.575713336,2.286614418,2.645330191,0.314159274,-4.234385967,-5.000000000
1759716181.751364,-0.395812213,-0.379687041,-0.091897316,0.002052069,0.000000000,1.200000048,0.018856551,-0.005594607,0.000000000,0.052386127,0.308383763,0.055501956,1759716181749772.000000000,0.000000000,1.000000000,1.000000000,7.334992409,1.000000000,0.021493040,0.051084686,0.307830483,0.731732965,-0.281070262,-0.535031021,0.462514043,-0.223888263,-0.147807524,0.000000000,0.341523051,-0.231614009,0.398320973,0.553493381,2.324217558,2.681347132,0.314159274,-4.220828533,-5.000000000
1759716181.840185,-0.374887764,-0.421255827,-0.098748125,0.002158403,0.000000000,1.200000048,0.015502770,-0.002790390,0.000000000,0.052340113,0.308379948,0.056820836,1759716181838553.000000000,0.000000000,1.000000000,1.000000000,7.423748970,1.000000000,0.018437939,0.047704417,0.310075462,0.732030392,-0.312928021,-0.513877928,0.428052157,-0.268911958,-0.150988057,0.000000000,0.316388696,-0.278191358,0.431019455,0.531610370,2.349599123,2.709230661,0.314159274,-4.211769581,-5.000000000
1759716181.938791,-0.341953665,-0.460413516,-0.104014754,0.002056360,0.000000000,1.200000048,0.008291768,0.000469091,0.000000000,0.048097353,0.308793813,0.057927791,1759716181937316.000000000,0.000000000,1.000000000,1.000000000,7.523684502,1.000000000,0.012674477,0.043859135,0.310993046,0.732249796,-0.348603815,-0.485544950,0.382055789,-0.317222714,-0.155675724,0.000000000,0.282410413,-0.328169137,0.464862913,0.502299726,2.380382538,2.740626335,0.314159274,-4.201810360,-5.000000000
1759716182.044145,-0.307312578,-0.487316728,-0.109597102,0.002049446,0.000000000,1.200000048,0.003138914,0.003402222,0.000000000,0.043734629,0.308251441,0.058510337,1759716182042511.000000000,0.000000000,1.000000000,1.000000000,7.625975609,1.000000000,0.004949114,0.043019462,0.310164541,0.732595563,-0.384478152,-0.451857686,0.329651564,-0.363605261,-0.160655811,0.000000000,0.239130646,-0.376152217,0.496143192,0.467449993,2.413568735,2.772762060,0.314159274,-4.188597679,-5.000000000
1759716182.167110,-0.260671854,-0.510925174,-0.121075653,0.002523184,0.000000000,1.200000048,-0.005478604,0.006443444,0.000000000,0.042191979,0.308576912,0.058467355,1759716182163409.000000000,0.000000000,1.000000000,1.000000000,7.740439415,1.000000000,-0.001302082,0.042313691,0.309115797,0.732576370,-0.418565243,-0.408945233,0.268355429,-0.411275983,-0.168233633,0.000000000,0.188746631,-0.425467938,0.526805520,0.423056781,2.450872898,2.808722019,0.314159274,-4.179740906,-5.000000000
1759716182.243692,-0.230549797,-0.520719349,-0.117631622,0.002030373,0.000000000,1.200000048,-0.010365252,0.008154440,0.000000000,0.042320844,0.308214515,0.058086824,1759716182239930.000000000,0.000000000,1.000000000,1.000000000,7.821949005,1.000000000,-0.000662481,0.044614565,0.312325537,0.732165515,-0.438337773,-0.375305414,0.232395396,-0.442187726,-0.174266428,0.000000000,0.154910415,-0.457446367,0.546042800,0.388256133,2.472707510,2.834328890,0.314159274,-4.181054592,-5.000000000
1759716182.337286,-0.185318723,-0.533020377,-0.098363489,0.002064705,0.000000000,1.200000048,-0.013662159,0.010715472,0.000000000,0.045060217,0.308611423,0.057217225,1759716182335695.000000000,0.000000000,1.000000000,1.000000000,7.921093941,1.000000000,-0.004549673,0.046660706,0.311794996,0.731526494,-0.461963564,-0.331269681,0.177737087,-0.476071984,-0.181951180,0.000000000,0.104744606,-0.492499888,0.565459192,0.342700839,2.504269361,2.865476131,0.314159274,-4.184195995,-5.000000000
1759716182.440494,-0.131865382,-0.538310885,-0.091002315,0.001165628,0.000000000,1.200000048,-0.015428698,0.013614310,0.000000000,0.045180339,0.309459448,0.056120601,1759716182436886.000000000,0.000000000,1.000000000,1.000000000,8.021532059,1.000000000,-0.008755917,0.046567153,0.311563343,0.730828524,-0.479647070,-0.283561260,0.121169724,-0.505941868,-0.188572064,0.000000000,0.053723399,-0.523400426,0.577482104,0.293346137,2.536239386,2.897029877,0.314159274,-4.189486980,-5.000000000
1759716182.535949,-0.087722376,-0.542190671,-0.075819895,0.001370907,0.000000000,1.200000048,-0.017144864,0.016039509,0.000000000,0.044046912,0.310069650,0.055118207,1759716182534595.000000000,0.000000000,1.000000000,1.000000000,8.121458054,1.000000000,-0.008671951,0.046454750,0.314999104,0.730156958,-0.490117967,-0.233444929,0.072969623,-0.530930877,-0.193470329,0.000000000,0.010490843,-0.549251795,0.584181070,0.241500437,2.563556910,2.928422451,0.314159274,-4.196867466,-5.000000000
1759716182.648219,-0.035759065,-0.540275693,-0.051005740,0.002250433,0.000000000,1.200000048,-0.017494975,0.019092815,0.000000000,0.044099428,0.311332077,0.053824756,1759716182646208.000000000,0.000000000,1.000000000,1.000000000,8.222146034,1.000000000,-0.012246044,0.048231609,0.312022150,0.728952885,-0.498980194,-0.180746689,0.014139560,-0.551103234,-0.198596328,0.000000000,-0.046581887,-0.570120215,0.592420101,0.186983734,2.598248482,2.960054398,0.314159274,-4.214028835,-5.000000000
1759716182.746156,0.018478490,-0.537878692,-0.032379288,0.001172304,0.000000000,1.200000048,-0.019983336,0.022415040,0.000000000,0.046636343,0.312672853,0.052467238,1759716182744621.000000000,0.000000000,1.000000000,1.000000000,8.331603050,1.000000000,-0.017540798,0.044922560,0.311161548,0.728391349,-0.498928428,-0.121534511,-0.049012467,-0.567109764,-0.199546412,0.000000000,-0.100689165,-0.586679101,0.587761402,0.125728309,2.634014368,2.994441509,0.314159274,-4.222807884,-5.000000000
1759716182.837399,0.061214846,-0.529150546,-0.023161059,0.001165390,0.000000000,1.200000048,-0.025864232,0.024936663,0.000000000,0.042759884,0.312800914,0.051208410,1759716182835620.000000000,0.000000000,1.000000000,1.000000000,8.421648979,1.000000000,-0.022522196,0.042373829,0.311346799,0.728128195,-0.494907171,-0.071774147,-0.099414572,-0.575528145,-0.198696613,0.000000000,-0.144075334,-0.595387936,0.576212704,0.074250862,2.662509441,3.022730350,0.314159274,-4.228346825,-5.000000000
1759716182.941877,0.098206915,-0.528439999,-0.023568047,0.001205206,0.000000000,1.200000048,-0.029913336,0.027044946,0.000000000,0.040982723,0.312837481,0.049593046,1759716182938101.000000000,0.000000000,1.000000000,1.000000000,8.519721031,1.000000000,-0.023338597,0.041426651,0.315778613,0.727867007,-0.487981319,-0.016973319,-0.144799963,-0.579737902,-0.197882533,0.000000000,-0.183126628,-0.599743009,0.561426044,0.017559020,2.688368320,3.053540230,0.314159274,-4.234240055,-5.000000000
1759716183.042143,0.153611198,-0.508712232,-0.009723938,0.002024412,0.000000000,1.200000048,-0.033450689,0.029862966,0.000000000,0.038065821,0.313535064,0.047072753,1759716183040703.000000000,0.000000000,1.000000000,1.000000000,8.626671791,1.000000000,-0.030252947,0.036123451,0.313705474,0.727527380,-0.471341014,0.042946085,-0.206731007,-0.578394115,-0.195524931,0.000000000,-0.232073411,-0.598352849,0.534920454,-0.044428028,2.724659681,3.087140083,0.314159274,-4.242338657,-5.000000000
1759716183.136038,0.188524798,-0.488852948,-0.004447065,0.001137495,0.000000000,1.200000048,-0.040259577,0.031754341,0.000000000,0.033635192,0.313311279,0.044786759,1759716183134702.000000000,0.000000000,1.000000000,1.000000000,8.722206116,1.000000000,-0.037343524,0.036707975,0.315150112,0.727433681,-0.457436979,0.096100554,-0.256759584,-0.571969271,-0.192383394,0.000000000,-0.276566595,-0.591706276,0.504368484,-0.099416710,2.753128052,3.117153168,0.314159274,-4.247295380,-5.000000000
1759716183.236345,0.240059435,-0.439787030,-0.008765607,0.001241207,0.000000000,1.200000048,-0.051542003,0.034101740,0.000000000,0.033463318,0.313137293,0.040558305,1759716183234715.000000000,0.000000000,1.000000000,1.000000000,8.819379807,1.000000000,-0.051163621,0.039149586,0.309393138,0.727687240,-0.437557638,0.149324089,-0.318736285,-0.560434163,-0.187332392,0.000000000,-0.340732098,-0.579773128,0.456612200,-0.154476836,2.790613890,3.147680998,0.314159274,-4.248177528,-5.000000000
1759716183.337745,0.273102015,-0.406545550,-0.018822959,0.001563549,0.000000000,1.200000048,-0.056507796,0.035960037,0.000000000,0.037826896,0.312738329,0.037252154,1759716183336052.000000000,0.000000000,1.000000000,1.000000000,8.919428825,1.000000000,-0.052349046,0.046042845,0.315717429,0.727981985,-0.423051804,0.202742442,-0.356621772,-0.543396413,-0.184197739,0.000000000,-0.384366184,-0.562147439,0.421800286,-0.209738508,2.814640522,3.179112196,0.314159274,-4.247144699,-5.000000000
1759716183.432722,0.328539521,-0.358013421,-0.021739861,0.001226664,0.000000000,1.200000048,-0.059370507,0.039305195,0.000000000,0.045450352,0.313900024,0.032233104,1759716183431572.000000000,0.000000000,1.000000000,1.000000000,9.019523621,1.000000000,-0.059476137,0.050252907,0.314402461,0.728325129,-0.398695886,0.254289418,-0.404639095,-0.521268666,-0.180868909,0.000000000,-0.444624633,-0.539256155,0.370007336,-0.263064206,2.847772121,3.210558176,0.314159274,-4.245790958,-5.000000000
1759716183.529880,0.378690094,-0.310392708,-0.028830951,0.000927687,0.000000000,1.200000048,-0.068135545,0.042788632,0.000000000,0.048127227,0.314480901,0.027535414,1759716183529070.000000000,0.000000000,1.000000000,1.000000000,9.118795395,1.000000000,-0.060888331,0.054937135,0.316944242,0.728755116,-0.373481572,0.303063512,-0.440110117,-0.494506478,-0.178191707,0.000000000,-0.496259332,-0.511570513,0.323012114,-0.313521355,2.876052141,3.241744995,0.314159274,-4.242938042,-5.000000000
1759716183.629050,0.438558519,-0.256817728,-0.043742355,0.000842333,0.000000000,1.200000048,-0.067853242,0.047208622,0.000000000,0.051204968,0.315432161,0.021948915,1759716183628373.000000000,0.000000000,1.000000000,1.000000000,9.218780518,1.000000000,-0.058863424,0.051771995,0.317206025,0.729060113,-0.336406469,0.349369109,-0.471183360,-0.462952882,-0.177110657,0.000000000,-0.540632248,-0.478928059,0.271063238,-0.361424834,2.907239437,3.273156404,0.314159274,-4.239653587,-5.000000000
1759716183.729990,0.494975746,-0.203076527,-0.048283484,0.000525951,0.000000000,1.200000048,-0.066589765,0.051391400,0.000000000,0.049434647,0.315650880,0.017057624,1759716183729315.000000000,0.000000000,1.000000000,1.000000000,9.318915367,1.000000000,-0.055674482,0.048935689,0.319315583,0.729214370,-0.296763003,0.392475188,-0.494544923,-0.427021503,-0.177186906,0.000000000,-0.578947723,-0.441756815,0.220082700,-0.406018376,2.936348200,3.304614782,0.314159274,-4.238057137,-5.000000000
1759716183.830526,0.548799753,-0.147830546,-0.042175870,0.000685930,0.000000000,1.200000048,-0.062265869,0.055789933,0.000000000,0.044547953,0.316820592,0.012206511,1759716183829596.000000000,0.000000000,1.000000000,1.000000000,9.418910980,1.000000000,-0.055237267,0.041182183,0.318675786,0.729404986,-0.245711222,0.431854576,-0.516051710,-0.387150824,-0.176847488,0.000000000,-0.613938630,-0.400510281,0.159778327,-0.446756661,2.968680143,3.336029053,0.314159274,-4.235647202,-5.000000000
1759716183.930234,0.594758511,-0.094859600,-0.045480203,0.000486135,0.000000000,1.200000048,-0.059081506,0.059428815,0.000000000,0.035996236,0.317309260,0.008277125,1759716183929247.000000000,0.000000000,1.000000000,1.000000000,9.518718719,1.000000000,-0.054932099,0.033012807,0.319312543,0.729574680,-0.191655889,0.467140406,-0.531465173,-0.343749881,-0.176527709,0.000000000,-0.638757885,-0.355611712,0.101533487,-0.483260095,2.999431849,3.367384911,0.314159274,-4.233108044,-5.000000000
1759716184.030282,0.625551939,-0.034081697,-0.045252029,0.000780821,0.000000000,1.200000048,-0.059866868,0.062389370,0.000000000,0.024164584,0.317734927,0.004117579,1759716184029333.000000000,0.000000000,1.000000000,1.000000000,9.618810654,1.000000000,-0.051582117,0.022903584,0.317317992,0.729649723,-0.128870323,0.498162419,-0.539183855,-0.297015756,-0.176227346,0.000000000,-0.658084929,-0.307264924,0.043043852,-0.515352547,3.033079386,3.398829460,0.314159274,-4.231626034,-5.000000000
1759716184.128605,0.641897738,0.016856607,-0.054161061,0.000460863,0.000000000,1.200000048,-0.054425638,0.064258091,0.000000000,0.014983013,0.317762226,0.000570300,1759716184127611.000000000,0.000000000,1.000000000,1.000000000,9.718710899,1.000000000,-0.048827503,0.013307809,0.317702889,0.730000198,-0.067144722,0.524479210,-0.542061508,-0.247599915,-0.175264344,0.000000000,-0.665557861,-0.256143868,-0.012646926,-0.542577446,3.064160824,3.430214167,0.314159274,-4.225396633,-5.000000000
1759716184.228490,0.641594291,0.070438437,-0.052528452,0.000632286,0.000000000,1.200000048,-0.048978660,0.065343380,0.000000000,0.004110591,0.317298681,-0.002598827,1759716184227968.000000000,0.000000000,1.000000000,1.000000000,9.818717957,1.000000000,-0.047292650,0.003789240,0.315621436,0.730141759,0.000153803,0.545928836,-0.538621902,-0.195821017,-0.175612062,0.000000000,-0.669352472,-0.202578232,-0.071838133,-0.564767241,3.097909212,3.461632252,0.314159274,-4.221358776,-5.000000000
1759716184.329900,0.634204030,0.109182328,-0.056304034,0.000472069,0.000000000,1.200000048,-0.045327403,0.065462820,0.000000000,-0.003597247,0.317153126,-0.004890093,1759716184328964.000000000,0.000000000,1.000000000,1.000000000,9.918863297,1.000000000,-0.046946485,-0.000164654,0.318117112,0.730049312,0.057478834,0.562299728,-0.532357633,-0.142137736,-0.176783875,0.000000000,-0.666302919,-0.147042498,-0.123696133,-0.581703126,3.126504421,3.493093967,0.314159274,-4.221503258,-5.000000000
1759716184.429659,0.616856992,0.159951493,-0.050466504,0.000370741,0.000000000,1.200000048,-0.047170747,0.064873539,0.000000000,-0.011356494,0.316860497,-0.007696399,1759716184428998.000000000,0.000000000,1.000000000,1.000000000,10.018714905,1.000000000,-0.050871618,-0.011110669,0.313612580,0.729606271,0.130511954,0.573380470,-0.520719171,-0.087286808,-0.179309651,0.000000000,-0.652127385,-0.090298824,-0.191718534,-0.593166173,3.162891388,3.524463177,0.314159274,-4.225760937,-5.000000000
1759716184.529054,0.592642725,0.198118731,-0.043349337,0.000974894,0.000000000,1.200000048,-0.049887653,0.063908167,0.000000000,-0.018646084,0.316279262,-0.010186307,1759716184528476.000000000,0.000000000,1.000000000,1.000000000,10.118728638,1.000000000,-0.052833214,-0.015639553,0.316253215,0.729291737,0.186971828,0.579128504,-0.507981718,-0.031532701,-0.180611581,0.000000000,-0.632577479,-0.032620806,-0.244459778,-0.599112570,3.191208601,3.555883408,0.314159274,-4.229796410,-5.000000000
1759716184.630575,0.554976344,0.252224445,-0.041482966,0.000714064,0.000000000,1.200000048,-0.052140322,0.061685853,0.000000000,-0.026648074,0.315520436,-0.013623647,1759716184629617.000000000,0.000000000,1.000000000,1.000000000,10.218956947,1.000000000,-0.054121252,-0.021595178,0.312683523,0.729141831,0.251534432,0.579462826,-0.485634238,0.024636619,-0.181290418,0.000000000,-0.606224179,0.025486758,-0.307406157,-0.599458456,3.226548910,3.587371111,0.314159274,-4.231190681,-5.000000000
1759716184.729937,0.519143403,0.286983907,-0.037521120,0.000461817,0.000000000,1.200000048,-0.052780718,0.059648160,0.000000000,-0.027860774,0.315276682,-0.016540319,1759716184728795.000000000,0.000000000,1.000000000,1.000000000,10.318796158,1.000000000,-0.051977184,-0.019934328,0.316226721,0.728938878,0.298026353,0.574392378,-0.462862641,0.080358826,-0.181585521,0.000000000,-0.583244443,0.083131783,-0.351445287,-0.594213009,3.254112244,3.618736744,0.314159274,-4.234565735,-5.000000000
1759716184.829152,0.474967003,0.330957085,-0.031791624,0.000588417,0.000000000,1.200000048,-0.050053280,0.056953989,0.000000000,-0.031153845,0.314893484,-0.020133954,1759716184828513.000000000,0.000000000,1.000000000,1.000000000,10.418707848,1.000000000,-0.050060607,-0.023736607,0.312817514,0.728327751,0.352791727,0.563966811,-0.429808378,0.135372147,-0.182769671,0.000000000,-0.547297657,0.140043452,-0.404259712,-0.583427668,3.289203644,3.650124788,0.314159274,-4.244157791,-5.000000000
1759716184.929403,0.432732731,0.361289293,-0.015361234,0.000718117,0.000000000,1.200000048,-0.047608323,0.054828193,0.000000000,-0.029537253,0.314741135,-0.022851489,1759716184928887.000000000,0.000000000,1.000000000,1.000000000,10.518839836,1.000000000,-0.049329139,-0.022593809,0.316220731,0.727676034,0.392483413,0.548244596,-0.400829673,0.189240649,-0.183899641,0.000000000,-0.513307750,0.195770800,-0.443417996,-0.567162931,3.316698790,3.681581974,0.314159274,-4.255366325,-5.000000000
1759716185.028792,0.388841987,0.397185177,0.001302920,0.000734091,0.000000000,1.200000048,-0.046557445,0.052550152,0.000000000,-0.033719659,0.314694494,-0.025771599,1759716185028276.000000000,0.000000000,1.000000000,1.000000000,10.618812561,1.000000000,-0.046341628,-0.025205296,0.317078531,0.726935148,0.432448447,0.527427018,-0.363450348,0.241256893,-0.183754668,0.000000000,-0.470309258,0.249581978,-0.478836119,-0.545626998,3.347150803,3.712989569,0.314159274,-4.269139290,-5.000000000
1759716185.129138,0.339074135,0.427644849,0.007430091,0.000410557,0.000000000,1.200000048,-0.043011073,0.049952935,0.000000000,-0.036537752,0.314814299,-0.028634420,1759716185128598.000000000,0.000000000,1.000000000,1.000000000,10.718779564,1.000000000,-0.044857021,-0.034688123,0.314896792,0.726761699,0.474911809,0.501689494,-0.320059896,0.291018546,-0.180279016,0.000000000,-0.410538763,0.301060766,-0.512295246,-0.519001365,3.380473852,3.744395018,0.314159274,-4.275465488,-5.000000000
1759716185.228745,0.285357386,0.447258294,0.005020760,0.000483751,0.000000000,1.200000048,-0.042211544,0.047077410,0.000000000,-0.043085106,0.314524293,-0.031199116,1759716185228162.000000000,0.000000000,1.000000000,1.000000000,10.818735123,1.000000000,-0.044748448,-0.039620720,0.315224439,0.726967573,0.508622050,0.471274674,-0.278650254,0.338059634,-0.176330432,0.000000000,-0.353174686,0.349725097,-0.540765643,-0.487537026,3.411261082,3.775796890,0.314159274,-4.275833130,-5.000000000
1759716185.328187,0.228610843,0.466347098,-0.001862645,0.000640154,0.000000000,1.200000048,-0.038857505,0.043440681,0.000000000,-0.047969125,0.314163625,-0.033919610,1759716185327662.000000000,0.000000000,1.000000000,1.000000000,10.918743134,1.000000000,-0.044080272,-0.043878268,0.313523978,0.727631986,0.538420379,0.436444104,-0.232216343,0.381969512,-0.171031237,0.000000000,-0.289806873,0.395150185,-0.566982090,-0.451504529,3.444257498,3.807215452,0.314159274,-4.269176006,-5.000000000
1759716185.427603,0.168961465,0.480601162,-0.021494923,0.000377893,0.000000000,1.200000048,-0.036713134,0.039726306,0.000000000,-0.051626738,0.313868612,-0.036213875,1759716185427097.000000000,0.000000000,1.000000000,1.000000000,11.018714905,1.000000000,-0.043757640,-0.044743169,0.314510912,0.728424430,0.560260832,0.397552758,-0.187521487,0.422298402,-0.166537553,0.000000000,-0.229908571,0.436870724,-0.585848451,-0.411271185,3.474525928,3.838622570,0.314159274,-4.259353638,-5.000000000
1759716185.528761,0.108379237,0.488798499,-0.040771436,0.000630856,0.000000000,1.200000048,-0.037943497,0.035720181,0.000000000,-0.052068535,0.313841373,-0.038712781,1759716185528149.000000000,0.000000000,1.000000000,1.000000000,11.118766785,1.000000000,-0.044010743,-0.046336178,0.313298762,0.729117632,0.578445256,0.354916155,-0.138894439,0.458714128,-0.164016441,0.000000000,-0.163622752,0.474543065,-0.603984475,-0.367163301,3.507198334,3.870054722,0.314159274,-4.249398232,-5.000000000
1759716185.628216,0.051623877,0.498643816,-0.048770566,0.000653267,0.000000000,1.200000048,-0.036197674,0.031938996,0.000000000,-0.051967815,0.314055264,-0.041220900,1759716185627724.000000000,0.000000000,1.000000000,1.000000000,11.218750954,1.000000000,-0.042050388,-0.044501983,0.314175874,0.729286194,0.587595820,0.308994502,-0.091029771,0.490822315,-0.163928628,0.000000000,-0.104226016,0.507759213,-0.614323080,-0.319657028,3.537678719,3.901465654,0.314159274,-4.246597767,-5.000000000
1759716185.729835,-0.008168499,0.503443301,-0.043898817,0.000647068,0.000000000,1.200000048,-0.033469267,0.028095128,0.000000000,-0.049429238,0.313836247,-0.043789808,1759716185728903.000000000,0.000000000,1.000000000,1.000000000,11.318778038,1.000000000,-0.039700978,-0.043757405,0.312811017,0.729401767,0.591128588,0.260167360,-0.039407477,0.518360019,-0.163861975,0.000000000,-0.039346155,0.536247134,-0.621740699,-0.269144982,3.570664406,3.932890177,0.314159274,-4.244801521,-5.000000000
1759716185.827974,-0.064651683,0.507703602,-0.052379441,0.000683784,0.000000000,1.200000048,-0.032256626,0.024838543,0.000000000,-0.046106391,0.313558161,-0.046057556,1759716185827498.000000000,0.000000000,1.000000000,1.000000000,11.418743134,1.000000000,-0.038632371,-0.040819317,0.313926220,0.729339600,0.587730527,0.208942100,0.007888648,0.541042805,-0.164634690,0.000000000,0.019443437,0.559712648,-0.625533044,-0.216152102,3.600973129,3.964295149,0.314159274,-4.245673180,-5.000000000
1759716185.928089,-0.120947354,0.508320570,-0.038431954,0.000704765,0.000000000,1.200000048,-0.030048005,0.021648847,0.000000000,-0.043275669,0.313630491,-0.048561707,1759716185927471.000000000,0.000000000,1.000000000,1.000000000,11.518713951,1.000000000,-0.035309937,-0.038320839,0.312787950,0.729043484,0.576949000,0.155764148,0.059074324,0.558678508,-0.166283593,0.000000000,0.080626644,0.577956915,-0.625588417,-0.161139131,3.633841753,3.995701790,0.314159274,-4.249775410,-5.000000000
1759716186.029380,-0.167382598,0.506890535,-0.042204741,0.000725985,0.000000000,1.200000048,-0.027449749,0.019112390,0.000000000,-0.042363774,0.313042551,-0.050744623,1759716186028812.000000000,0.000000000,1.000000000,1.000000000,11.618802071,1.000000000,-0.032430753,-0.038901147,0.313681453,0.729225814,0.564455509,0.101068221,0.107520953,0.571112394,-0.165736318,0.000000000,0.139924079,0.590819836,-0.616795540,-0.104555793,3.664227962,4.027145386,0.314159274,-4.247269630,-5.000000000
1759716186.128999,-0.219117016,0.501053929,-0.051640902,0.000846624,0.000000000,1.200000048,-0.023704359,0.016441904,0.000000000,-0.041588478,0.313246906,-0.052885767,1759716186128442.000000000,0.000000000,1.000000000,1.000000000,11.718868256,1.000000000,-0.027028626,-0.037728835,0.312583715,0.729759872,0.544220865,0.045439243,0.159194872,0.578203619,-0.164680794,0.000000000,0.196173921,0.598155797,-0.605711758,-0.047007218,3.697052479,4.058582306,0.314159274,-4.238222599,-5.000000000
1759716186.228160,-0.259110987,0.494405121,-0.055736858,0.000702143,0.000000000,1.200000048,-0.019742550,0.014237879,0.000000000,-0.039042629,0.313085765,-0.054500859,1759716186227668.000000000,0.000000000,1.000000000,1.000000000,11.818748474,1.000000000,-0.021721397,-0.036921397,0.313562691,0.730389059,0.520573616,-0.010510707,0.207757682,0.579891086,-0.163845420,0.000000000,0.245405570,0.599901438,-0.588486314,0.010873402,3.727319717,4.089960575,0.314159274,-4.226916790,-5.000000000
1759716186.328298,-0.297050774,0.480729312,-0.069878057,0.000683069,0.000000000,1.200000048,-0.011747535,0.012011151,0.000000000,-0.039436199,0.313173711,-0.055773731,1759716186327580.000000000,0.000000000,1.000000000,1.000000000,11.918733597,1.000000000,-0.013479557,-0.040516645,0.311869144,0.730943561,0.491177231,-0.066421047,0.261670649,0.576170444,-0.164412707,0.000000000,0.298507810,0.596052468,-0.559743047,0.068713047,3.760492563,4.121371746,0.314159274,-4.214858532,-5.000000000
1759716186.428909,-0.329768926,0.455633551,-0.073949799,0.000650883,0.000000000,1.200000048,-0.003493860,0.009823349,0.000000000,-0.042265490,0.313092291,-0.056224830,1759716186428334.000000000,0.000000000,1.000000000,1.000000000,12.018781662,1.000000000,-0.008022706,-0.045080930,0.311911106,0.731164873,0.461286843,-0.121745266,0.310933411,0.567064583,-0.166882038,0.000000000,0.347199261,0.586632371,-0.524882972,0.125946343,3.791526318,4.152802467,0.314159274,-4.207353592,-5.000000000
1759716186.528917,-0.362739414,0.423318774,-0.075320706,0.000726938,0.000000000,1.200000048,0.001056005,0.006928448,0.000000000,-0.048113137,0.312518537,-0.056129955,1759716186528380.000000000,0.000000000,1.000000000,1.000000000,12.118877411,1.000000000,-0.002661429,-0.049571071,0.309995383,0.731390417,0.426550239,-0.175957814,0.360498369,0.552650869,-0.169708118,0.000000000,0.396047860,0.571721256,-0.483659804,0.182029620,3.824979067,4.184248447,0.314159274,-4.199208260,-5.000000000
